[{"istat":"61001","comune":"Ailano","latitudine":41.39076138,"_id":{"$oid":"60b49fb0658076478ce5e3ee"},"provincia":"CE","regione":"Campania","longitudine":14.20351931},{"istat":"61002","comune":"Alife","latitudine":41.32713742,"_id":{"$oid":"60b49fb0658076478ce5e3ef"},"provincia":"CE","regione":"Campania","longitudine":14.33616107},{"istat":"61003","comune":"Alvignano","latitudine":41.24491961,"_id":{"$oid":"60b49fb0658076478ce5e3f0"},"provincia":"CE","regione":"Campania","longitudine":14.33676719},{"istat":"61004","comune":"Arienzo","latitudine":41.02554469,"_id":{"$oid":"60b49fb0658076478ce5e3f1"},"provincia":"CE","regione":"Campania","longitudine":14.49379698},{"istat":"61005","comune":"Aversa","latitudine":40.9730782,"_id":{"$oid":"60b49fb0658076478ce5e3f2"},"provincia":"CE","regione":"Campania","longitudine":14.20627126},{"istat":"61006","comune":"Baia e Latina","latitudine":41.3005341,"_id":{"$oid":"60b49fb0658076478ce5e3f3"},"provincia":"CE","regione":"Campania","longitudine":14.25034037},{"istat":"61007","comune":"Bellona","latitudine":41.16032848,"_id":{"$oid":"60b49fb0658076478ce5e3f4"},"provincia":"CE","regione":"Campania","longitudine":14.22849069},{"istat":"61008","comune":"Caianello","latitudine":41.30426509,"_id":{"$oid":"60b49fb0658076478ce5e3f5"},"provincia":"CE","regione":"Campania","longitudine":14.0780728},{"istat":"61009","comune":"Caiazzo","latitudine":41.17756413,"_id":{"$oid":"60b49fb0658076478ce5e3f6"},"provincia":"CE","regione":"Campania","longitudine":14.36567455},{"istat":"61010","comune":"Calvi Risorta","latitudine":41.2155971,"_id":{"$oid":"60b49fb0658076478ce5e3f7"},"provincia":"CE","regione":"Campania","longitudine":14.13101024},{"istat":"61011","comune":"Camigliano","latitudine":41.18289425,"_id":{"$oid":"60b49fb0658076478ce5e3f8"},"provincia":"CE","regione":"Campania","longitudine":14.21035628},{"istat":"61012","comune":"Cancello ed Arnone","latitudine":41.07353284,"_id":{"$oid":"60b49fb0658076478ce5e3f9"},"provincia":"CE","regione":"Campania","longitudine":14.02597438},{"istat":"61013","comune":"Capodrise","latitudine":41.04196082,"_id":{"$oid":"60b49fb0658076478ce5e3fa"},"provincia":"CE","regione":"Campania","longitudine":14.30075451},{"istat":"61014","comune":"Capriati a Volturno","latitudine":41.46926476,"_id":{"$oid":"60b49fb0658076478ce5e3fb"},"provincia":"CE","regione":"Campania","longitudine":14.14610942},{"istat":"61015","comune":"Capua","latitudine":41.10762792,"_id":{"$oid":"60b49fb0658076478ce5e3fc"},"provincia":"CE","regione":"Campania","longitudine":14.21085054},{"istat":"61016","comune":"Carinaro","latitudine":40.98895817,"_id":{"$oid":"60b49fb0658076478ce5e3fd"},"provincia":"CE","regione":"Campania","longitudine":14.21700446},{"istat":"61017","comune":"Carinola","latitudine":41.18743798,"_id":{"$oid":"60b49fb0658076478ce5e3fe"},"provincia":"CE","regione":"Campania","longitudine":13.98181287},{"istat":"61018","comune":"Casagiove","latitudine":41.08218576,"_id":{"$oid":"60b49fb0658076478ce5e3ff"},"provincia":"CE","regione":"Campania","longitudine":14.31119949},{"istat":"61019","comune":"Casal di Principe","latitudine":41.00735255,"_id":{"$oid":"60b49fb0658076478ce5e400"},"provincia":"CE","regione":"Campania","longitudine":14.13055884},{"istat":"61020","comune":"Casaluce","latitudine":41.00234452,"_id":{"$oid":"60b49fb0658076478ce5e401"},"provincia":"CE","regione":"Campania","longitudine":14.19437506},{"istat":"61021","comune":"Casapulla","latitudine":41.07477399,"_id":{"$oid":"60b49fb0658076478ce5e402"},"provincia":"CE","regione":"Campania","longitudine":14.28855719},{"istat":"61022","comune":"Caserta","latitudine":41.07465878,"_id":{"$oid":"60b49fb0658076478ce5e403"},"provincia":"CE","regione":"Campania","longitudine":14.33240485},{"istat":"61023","comune":"Castel Campagnano","latitudine":41.18239826,"_id":{"$oid":"60b49fb0658076478ce5e404"},"provincia":"CE","regione":"Campania","longitudine":14.4530029},{"istat":"61024","comune":"Castel di Sasso","latitudine":41.19769212,"_id":{"$oid":"60b49fb0658076478ce5e405"},"provincia":"CE","regione":"Campania","longitudine":14.28435634},{"istat":"61025","comune":"Castello del Matese","latitudine":41.36675267,"_id":{"$oid":"60b49fb0658076478ce5e406"},"provincia":"CE","regione":"Campania","longitudine":14.37791299},{"istat":"61026","comune":"Castel Morrone","latitudine":41.12028848,"_id":{"$oid":"60b49fb0658076478ce5e407"},"provincia":"CE","regione":"Campania","longitudine":14.35762396},{"istat":"61027","comune":"Castel Volturno","latitudine":41.0346053,"_id":{"$oid":"60b49fb0658076478ce5e408"},"provincia":"CE","regione":"Campania","longitudine":13.94094427},{"istat":"61028","comune":"Cervino","latitudine":41.03971,"_id":{"$oid":"60b49fb0658076478ce5e409"},"provincia":"CE","regione":"Campania","longitudine":14.42434334},{"istat":"61029","comune":"Cesa","latitudine":40.96254438,"_id":{"$oid":"60b49fb0658076478ce5e40a"},"provincia":"CE","regione":"Campania","longitudine":14.23044571},{"istat":"61030","comune":"Ciorlano","latitudine":41.45047076,"_id":{"$oid":"60b49fb0658076478ce5e40b"},"provincia":"CE","regione":"Campania","longitudine":14.15804795},{"istat":"61031","comune":"Conca della Campania","latitudine":41.33173758,"_id":{"$oid":"60b49fb0658076478ce5e40c"},"provincia":"CE","regione":"Campania","longitudine":13.99142237},{"istat":"61032","comune":"Curti","latitudine":41.07449401,"_id":{"$oid":"60b49fb0658076478ce5e40d"},"provincia":"CE","regione":"Campania","longitudine":14.27655605},{"istat":"61033","comune":"Dragoni","latitudine":41.27339687,"_id":{"$oid":"60b49fb0658076478ce5e40e"},"provincia":"CE","regione":"Campania","longitudine":14.30845696},{"istat":"61034","comune":"Fontegreca","latitudine":41.45652512,"_id":{"$oid":"60b49fb0658076478ce5e40f"},"provincia":"CE","regione":"Campania","longitudine":14.1838485},{"istat":"61035","comune":"Formicola","latitudine":41.21071714,"_id":{"$oid":"60b49fb0658076478ce5e410"},"provincia":"CE","regione":"Campania","longitudine":14.23299177},{"istat":"61036","comune":"Francolise","latitudine":41.18521699,"_id":{"$oid":"60b49fb0658076478ce5e411"},"provincia":"CE","regione":"Campania","longitudine":14.05618895},{"istat":"61037","comune":"Frignano","latitudine":40.99496906,"_id":{"$oid":"60b49fb0658076478ce5e412"},"provincia":"CE","regione":"Campania","longitudine":14.17949932},{"istat":"61038","comune":"Gallo Matese","latitudine":41.46498739,"_id":{"$oid":"60b49fb0658076478ce5e413"},"provincia":"CE","regione":"Campania","longitudine":14.22518593},{"istat":"61039","comune":"Galluccio","latitudine":41.34148314,"_id":{"$oid":"60b49fb0658076478ce5e414"},"provincia":"CE","regione":"Campania","longitudine":13.95613005},{"istat":"61040","comune":"Giano Vetusto","latitudine":41.20407654,"_id":{"$oid":"60b49fb0658076478ce5e415"},"provincia":"CE","regione":"Campania","longitudine":14.19310542},{"istat":"61041","comune":"Gioia Sannitica","latitudine":41.29965161,"_id":{"$oid":"60b49fb0658076478ce5e416"},"provincia":"CE","regione":"Campania","longitudine":14.44380863},{"istat":"61042","comune":"Grazzanise","latitudine":41.09020288,"_id":{"$oid":"60b49fb0658076478ce5e417"},"provincia":"CE","regione":"Campania","longitudine":14.09822789},{"istat":"61043","comune":"Gricignano di Aversa","latitudine":40.98152228,"_id":{"$oid":"60b49fb0658076478ce5e418"},"provincia":"CE","regione":"Campania","longitudine":14.23285595},{"istat":"61044","comune":"Letino","latitudine":41.45233405,"_id":{"$oid":"60b49fb0658076478ce5e419"},"provincia":"CE","regione":"Campania","longitudine":14.24998246},{"istat":"61045","comune":"Liberi","latitudine":41.2227652,"_id":{"$oid":"60b49fb0658076478ce5e41a"},"provincia":"CE","regione":"Campania","longitudine":14.28220876},{"istat":"61046","comune":"Lusciano","latitudine":40.96967738,"_id":{"$oid":"60b49fb0658076478ce5e41b"},"provincia":"CE","regione":"Campania","longitudine":14.19168991},{"istat":"61047","comune":"Macerata Campania","latitudine":41.06309777,"_id":{"$oid":"60b49fb0658076478ce5e41c"},"provincia":"CE","regione":"Campania","longitudine":14.27444243},{"istat":"61048","comune":"Maddaloni","latitudine":41.03861142,"_id":{"$oid":"60b49fb0658076478ce5e41d"},"provincia":"CE","regione":"Campania","longitudine":14.38381932},{"istat":"61049","comune":"Marcianise","latitudine":41.03554506,"_id":{"$oid":"60b49fb0658076478ce5e41e"},"provincia":"CE","regione":"Campania","longitudine":14.2994533},{"istat":"61050","comune":"Marzano Appio","latitudine":41.31628332,"_id":{"$oid":"60b49fb0658076478ce5e41f"},"provincia":"CE","regione":"Campania","longitudine":14.03933051},{"istat":"61051","comune":"Mignano Monte Lungo","latitudine":41.40673147,"_id":{"$oid":"60b49fb0658076478ce5e420"},"provincia":"CE","regione":"Campania","longitudine":13.98743095},{"istat":"61052","comune":"Mondragone","latitudine":41.11293737,"_id":{"$oid":"60b49fb0658076478ce5e421"},"provincia":"CE","regione":"Campania","longitudine":13.88716123},{"istat":"61053","comune":"Orta di Atella","latitudine":40.96645147,"_id":{"$oid":"60b49fb0658076478ce5e422"},"provincia":"CE","regione":"Campania","longitudine":14.26935489},{"istat":"61054","comune":"Parete","latitudine":40.95650571,"_id":{"$oid":"60b49fb0658076478ce5e423"},"provincia":"CE","regione":"Campania","longitudine":14.16421608},{"istat":"61055","comune":"Pastorano","latitudine":41.18228429,"_id":{"$oid":"60b49fb0658076478ce5e424"},"provincia":"CE","regione":"Campania","longitudine":14.20148269},{"istat":"61056","comune":"Piana di Monte Verna","latitudine":41.16755929,"_id":{"$oid":"60b49fb0658076478ce5e425"},"provincia":"CE","regione":"Campania","longitudine":14.3340482},{"istat":"61057","comune":"Piedimonte Matese","latitudine":41.35594304,"_id":{"$oid":"60b49fb0658076478ce5e426"},"provincia":"CE","regione":"Campania","longitudine":14.37421618},{"istat":"61058","comune":"Pietramelara","latitudine":41.26686257,"_id":{"$oid":"60b49fb0658076478ce5e427"},"provincia":"CE","regione":"Campania","longitudine":14.18614179},{"istat":"61059","comune":"Pietravairano","latitudine":41.32194969,"_id":{"$oid":"60b49fb0658076478ce5e428"},"provincia":"CE","regione":"Campania","longitudine":14.16221729},{"istat":"61060","comune":"Pignataro Maggiore","latitudine":41.18929052,"_id":{"$oid":"60b49fb0658076478ce5e429"},"provincia":"CE","regione":"Campania","longitudine":14.17125085},{"istat":"61061","comune":"Pontelatone","latitudine":41.19344415,"_id":{"$oid":"60b49fb0658076478ce5e42a"},"provincia":"CE","regione":"Campania","longitudine":14.25104785},{"istat":"61062","comune":"Portico di Caserta","latitudine":41.0564905,"_id":{"$oid":"60b49fb0658076478ce5e42b"},"provincia":"CE","regione":"Campania","longitudine":14.28053771},{"istat":"61063","comune":"Prata Sannita","latitudine":41.4322714,"_id":{"$oid":"60b49fb0658076478ce5e42c"},"provincia":"CE","regione":"Campania","longitudine":14.20345479},{"istat":"61064","comune":"Pratella","latitudine":41.40578832,"_id":{"$oid":"60b49fb0658076478ce5e42d"},"provincia":"CE","regione":"Campania","longitudine":14.17913123},{"istat":"61065","comune":"Presenzano","latitudine":41.37746119,"_id":{"$oid":"60b49fb0658076478ce5e42e"},"provincia":"CE","regione":"Campania","longitudine":14.07857094},{"istat":"61066","comune":"Raviscanina","latitudine":41.37052383,"_id":{"$oid":"60b49fb0658076478ce5e42f"},"provincia":"CE","regione":"Campania","longitudine":14.24281635},{"istat":"61067","comune":"Recale","latitudine":41.0563861,"_id":{"$oid":"60b49fb0658076478ce5e430"},"provincia":"CE","regione":"Campania","longitudine":14.30302105},{"istat":"61068","comune":"Riardo","latitudine":41.2639894,"_id":{"$oid":"60b49fb0658076478ce5e431"},"provincia":"CE","regione":"Campania","longitudine":14.14904208},{"istat":"61069","comune":"Rocca D'Evandro","latitudine":"non disponibile","_id":{"$oid":"60b49fb0658076478ce5e432"},"provincia":"CE","regione":"Campania","longitudine":"non disponibile"},{"istat":"61070","comune":"Roccamonfina","latitudine":41.28683417,"_id":{"$oid":"60b49fb0658076478ce5e433"},"provincia":"CE","regione":"Campania","longitudine":13.97905493},{"istat":"61071","comune":"Roccaromana","latitudine":41.27400185,"_id":{"$oid":"60b49fb0658076478ce5e434"},"provincia":"CE","regione":"Campania","longitudine":14.22319539},{"istat":"61072","comune":"Rocchetta e Croce","latitudine":41.23715985,"_id":{"$oid":"60b49fb0658076478ce5e435"},"provincia":"CE","regione":"Campania","longitudine":14.15764611},{"istat":"61073","comune":"Ruviano","latitudine":41.2106267,"_id":{"$oid":"60b49fb0658076478ce5e436"},"provincia":"CE","regione":"Campania","longitudine":14.40983327},{"istat":"61074","comune":"San Cipriano d'Aversa","latitudine":40.99968716,"_id":{"$oid":"60b49fb0658076478ce5e437"},"provincia":"CE","regione":"Campania","longitudine":14.13456689},{"istat":"61075","comune":"San Felice a Cancello","latitudine":41.0117889,"_id":{"$oid":"60b49fb0658076478ce5e438"},"provincia":"CE","regione":"Campania","longitudine":14.48097397},{"istat":"61076","comune":"San Gregorio Matese","latitudine":41.38555981,"_id":{"$oid":"60b49fb0658076478ce5e439"},"provincia":"CE","regione":"Campania","longitudine":14.37217206},{"istat":"61077","comune":"San Marcellino","latitudine":40.98671424,"_id":{"$oid":"60b49fb0658076478ce5e43a"},"provincia":"CE","regione":"Campania","longitudine":14.17390517},{"istat":"61078","comune":"San Nicola la Strada","latitudine":41.05449475,"_id":{"$oid":"60b49fb0658076478ce5e43b"},"provincia":"CE","regione":"Campania","longitudine":14.33135439},{"istat":"61079","comune":"San Pietro Infine","latitudine":41.44589132,"_id":{"$oid":"60b49fb0658076478ce5e43c"},"provincia":"CE","regione":"Campania","longitudine":13.95697782},{"istat":"61080","comune":"San Potito Sannitico","latitudine":41.33832178,"_id":{"$oid":"60b49fb0658076478ce5e43d"},"provincia":"CE","regione":"Campania","longitudine":14.39297847},{"istat":"61081","comune":"San Prisco","latitudine":41.08589926,"_id":{"$oid":"60b49fb0658076478ce5e43e"},"provincia":"CE","regione":"Campania","longitudine":14.27869652},{"istat":"61082","comune":"Santa Maria a Vico","latitudine":41.02724272,"_id":{"$oid":"60b49fb0658076478ce5e43f"},"provincia":"CE","regione":"Campania","longitudine":14.4634954},{"istat":"61083","comune":"Santa Maria Capua Vetere","latitudine":41.07755469,"_id":{"$oid":"60b49fb0658076478ce5e440"},"provincia":"CE","regione":"Campania","longitudine":14.26158174},{"istat":"61084","comune":"Santa Maria La Fossa","latitudine":"non disponibile","_id":{"$oid":"60b49fb0658076478ce5e441"},"provincia":"CE","regione":"Campania","longitudine":"non disponibile"},{"istat":"61085","comune":"San Tammaro","latitudine":41.07668838,"_id":{"$oid":"60b49fb0658076478ce5e442"},"provincia":"CE","regione":"Campania","longitudine":14.23202202},{"istat":"61086","comune":"Sant'Angelo d'Alife","latitudine":41.3626447,"_id":{"$oid":"60b49fb0658076478ce5e443"},"provincia":"CE","regione":"Campania","longitudine":14.25965786},{"istat":"61087","comune":"Sant'Arpino","latitudine":40.95788128,"_id":{"$oid":"60b49fb0658076478ce5e444"},"provincia":"CE","regione":"Campania","longitudine":14.25231539},{"istat":"61088","comune":"Sessa Aurunca","latitudine":41.24311381,"_id":{"$oid":"60b49fb0658076478ce5e445"},"provincia":"CE","regione":"Campania","longitudine":13.93278984},{"istat":"61089","comune":"Sparanise","latitudine":41.19057397,"_id":{"$oid":"60b49fb0658076478ce5e446"},"provincia":"CE","regione":"Campania","longitudine":14.0963742},{"istat":"61090","comune":"Succivo","latitudine":40.96550646,"_id":{"$oid":"60b49fb0658076478ce5e447"},"provincia":"CE","regione":"Campania","longitudine":14.25317294},{"istat":"61091","comune":"Teano","latitudine":41.24967248,"_id":{"$oid":"60b49fb0658076478ce5e448"},"provincia":"CE","regione":"Campania","longitudine":14.06867782},{"istat":"61092","comune":"Teverola","latitudine":40.99332422,"_id":{"$oid":"60b49fb0658076478ce5e449"},"provincia":"CE","regione":"Campania","longitudine":14.20834928},{"istat":"61093","comune":"Tora e Piccilli","latitudine":41.33834732,"_id":{"$oid":"60b49fb0658076478ce5e44a"},"provincia":"CE","regione":"Campania","longitudine":14.02195483},{"istat":"61094","comune":"Trentola Ducenta","latitudine":40.97565323,"_id":{"$oid":"60b49fb0658076478ce5e44b"},"provincia":"CE","regione":"Campania","longitudine":14.17561733},{"istat":"61095","comune":"Vairano Patenora","latitudine":41.33306519,"_id":{"$oid":"60b49fb0658076478ce5e44c"},"provincia":"CE","regione":"Campania","longitudine":14.13172659},{"istat":"61096","comune":"Valle Agricola","latitudine":41.42427958,"_id":{"$oid":"60b49fb0658076478ce5e44d"},"provincia":"CE","regione":"Campania","longitudine":14.25593108},{"istat":"61097","comune":"Valle di Maddaloni","latitudine":41.08011467,"_id":{"$oid":"60b49fb0658076478ce5e44e"},"provincia":"CE","regione":"Campania","longitudine":14.41679476},{"istat":"61098","comune":"Villa di Briano","latitudine":40.99834392,"_id":{"$oid":"60b49fb0658076478ce5e44f"},"provincia":"CE","regione":"Campania","longitudine":14.16848121},{"istat":"61099","comune":"Villa Literno","latitudine":41.00973652,"_id":{"$oid":"60b49fb0658076478ce5e450"},"provincia":"CE","regione":"Campania","longitudine":14.0741081},{"istat":"61100","comune":"Vitulazio","latitudine":41.16412896,"_id":{"$oid":"60b49fb0658076478ce5e451"},"provincia":"CE","regione":"Campania","longitudine":14.21898751},{"istat":"61101","comune":"Falciano del Massico","latitudine":41.16754649,"_id":{"$oid":"60b49fb0658076478ce5e452"},"provincia":"CE","regione":"Campania","longitudine":13.9488624},{"istat":"61102","comune":"Cellole","latitudine":41.20444362,"_id":{"$oid":"60b49fb0658076478ce5e453"},"provincia":"CE","regione":"Campania","longitudine":13.85489865},{"istat":"61103","comune":"Casapesenna","latitudine":40.98903859,"_id":{"$oid":"60b49fb0658076478ce5e454"},"provincia":"CE","regione":"Campania","longitudine":14.13302867},{"istat":"61104","comune":"San Marco Evangelista","latitudine":41.03761062,"_id":{"$oid":"60b49fb0658076478ce5e455"},"provincia":"CE","regione":"Campania","longitudine":14.34320904},{"istat":"62001","comune":"Airola","latitudine":41.06632744,"_id":{"$oid":"60b49fb0658076478ce5e456"},"provincia":"BN","regione":"Campania","longitudine":14.56140691},{"istat":"62002","comune":"Amorosi","latitudine":41.20530843,"_id":{"$oid":"60b49fb0658076478ce5e457"},"provincia":"BN","regione":"Campania","longitudine":14.46115943},{"istat":"62003","comune":"Apice","latitudine":41.11857609,"_id":{"$oid":"60b49fb0658076478ce5e458"},"provincia":"BN","regione":"Campania","longitudine":14.93107277},{"istat":"62004","comune":"Apollosa","latitudine":41.09342313,"_id":{"$oid":"60b49fb0658076478ce5e459"},"provincia":"BN","regione":"Campania","longitudine":14.7045246},{"istat":"62005","comune":"Arpaia","latitudine":41.03685746,"_id":{"$oid":"60b49fb0658076478ce5e45a"},"provincia":"BN","regione":"Campania","longitudine":14.55176809},{"istat":"62006","comune":"Arpaise","latitudine":41.03063198,"_id":{"$oid":"60b49fb0658076478ce5e45b"},"provincia":"BN","regione":"Campania","longitudine":14.74370822},{"istat":"62007","comune":"Baselice","latitudine":41.39742456,"_id":{"$oid":"60b49fb0658076478ce5e45c"},"provincia":"BN","regione":"Campania","longitudine":14.97257424},{"istat":"62008","comune":"Benevento","latitudine":41.12969986,"_id":{"$oid":"60b49fb0658076478ce5e45d"},"provincia":"BN","regione":"Campania","longitudine":14.7815172},{"istat":"62009","comune":"Bonea","latitudine":41.07494435,"_id":{"$oid":"60b49fb0658076478ce5e45e"},"provincia":"BN","regione":"Campania","longitudine":14.61856038},{"istat":"62010","comune":"Bucciano","latitudine":41.07704547,"_id":{"$oid":"60b49fb0658076478ce5e45f"},"provincia":"BN","regione":"Campania","longitudine":14.56996946},{"istat":"62011","comune":"Buonalbergo","latitudine":41.22130851,"_id":{"$oid":"60b49fb0658076478ce5e460"},"provincia":"BN","regione":"Campania","longitudine":14.97735441},{"istat":"62012","comune":"Calvi","latitudine":41.07242545,"_id":{"$oid":"60b49fb0658076478ce5e461"},"provincia":"BN","regione":"Campania","longitudine":14.86690871},{"istat":"62013","comune":"Campolattaro","latitudine":41.28693249,"_id":{"$oid":"60b49fb0658076478ce5e462"},"provincia":"BN","regione":"Campania","longitudine":14.73043517},{"istat":"62014","comune":"Campoli del Monte Taburno","latitudine":41.1307419,"_id":{"$oid":"60b49fb0658076478ce5e463"},"provincia":"BN","regione":"Campania","longitudine":14.64649475},{"istat":"62015","comune":"Casalduni","latitudine":41.2602866,"_id":{"$oid":"60b49fb0658076478ce5e464"},"provincia":"BN","regione":"Campania","longitudine":14.69521255},{"istat":"62016","comune":"Castelfranco in Miscano","latitudine":41.29686774,"_id":{"$oid":"60b49fb0658076478ce5e465"},"provincia":"BN","regione":"Campania","longitudine":15.08257087},{"istat":"62017","comune":"Castelpagano","latitudine":41.40251506,"_id":{"$oid":"60b49fb0658076478ce5e466"},"provincia":"BN","regione":"Campania","longitudine":14.80667997},{"istat":"62018","comune":"Castelpoto","latitudine":41.14096887,"_id":{"$oid":"60b49fb0658076478ce5e467"},"provincia":"BN","regione":"Campania","longitudine":14.69971087},{"istat":"62019","comune":"Castelvenere","latitudine":41.2346114,"_id":{"$oid":"60b49fb0658076478ce5e468"},"provincia":"BN","regione":"Campania","longitudine":14.54743509},{"istat":"62020","comune":"Castelvetere in Val Fortore","latitudine":41.4419691,"_id":{"$oid":"60b49fb0658076478ce5e469"},"provincia":"BN","regione":"Campania","longitudine":14.94213224},{"istat":"62021","comune":"Cautano","latitudine":41.1492033,"_id":{"$oid":"60b49fb0658076478ce5e46a"},"provincia":"BN","regione":"Campania","longitudine":14.63796656},{"istat":"62022","comune":"Ceppaloni","latitudine":41.0455693,"_id":{"$oid":"60b49fb0658076478ce5e46b"},"provincia":"BN","regione":"Campania","longitudine":14.76112488},{"istat":"62023","comune":"Cerreto Sannita","latitudine":41.28321897,"_id":{"$oid":"60b49fb0658076478ce5e46c"},"provincia":"BN","regione":"Campania","longitudine":14.5568909},{"istat":"62024","comune":"Circello","latitudine":41.35602914,"_id":{"$oid":"60b49fb0658076478ce5e46d"},"provincia":"BN","regione":"Campania","longitudine":14.80828522},{"istat":"62025","comune":"Colle Sannita","latitudine":41.36376927,"_id":{"$oid":"60b49fb0658076478ce5e46e"},"provincia":"BN","regione":"Campania","longitudine":14.83295842},{"istat":"62026","comune":"Cusano Mutri","latitudine":41.33756175,"_id":{"$oid":"60b49fb0658076478ce5e46f"},"provincia":"BN","regione":"Campania","longitudine":14.50879373},{"istat":"62027","comune":"Dugenta","latitudine":41.13518764,"_id":{"$oid":"60b49fb0658076478ce5e470"},"provincia":"BN","regione":"Campania","longitudine":14.4537261},{"istat":"62028","comune":"Durazzano","latitudine":41.06139884,"_id":{"$oid":"60b49fb0658076478ce5e471"},"provincia":"BN","regione":"Campania","longitudine":14.44690145},{"istat":"62029","comune":"Faicchio","latitudine":41.27840301,"_id":{"$oid":"60b49fb0658076478ce5e472"},"provincia":"BN","regione":"Campania","longitudine":14.47948684},{"istat":"62030","comune":"Foglianise","latitudine":41.15696538,"_id":{"$oid":"60b49fb0658076478ce5e473"},"provincia":"BN","regione":"Campania","longitudine":14.67155655},{"istat":"62031","comune":"Foiano di Val Fortore","latitudine":41.35245427,"_id":{"$oid":"60b49fb0658076478ce5e474"},"provincia":"BN","regione":"Campania","longitudine":14.97403127},{"istat":"62032","comune":"Forchia","latitudine":41.03021164,"_id":{"$oid":"60b49fb0658076478ce5e475"},"provincia":"BN","regione":"Campania","longitudine":14.53683858},{"istat":"62033","comune":"Fragneto L'Abate","latitudine":"non disponibile","_id":{"$oid":"60b49fb0658076478ce5e476"},"provincia":"BN","regione":"Campania","longitudine":"non disponibile"},{"istat":"62034","comune":"Fragneto Monforte","latitudine":41.2463355,"_id":{"$oid":"60b49fb0658076478ce5e477"},"provincia":"BN","regione":"Campania","longitudine":14.76342439},{"istat":"62035","comune":"Frasso Telesino","latitudine":41.15752604,"_id":{"$oid":"60b49fb0658076478ce5e478"},"provincia":"BN","regione":"Campania","longitudine":14.52740031},{"istat":"62036","comune":"Ginestra degli Schiavoni","latitudine":41.27943084,"_id":{"$oid":"60b49fb0658076478ce5e479"},"provincia":"BN","regione":"Campania","longitudine":15.0423827},{"istat":"62037","comune":"Guardia Sanframondi","latitudine":41.25651724,"_id":{"$oid":"60b49fb0658076478ce5e47a"},"provincia":"BN","regione":"Campania","longitudine":14.60000778},{"istat":"62038","comune":"Limatola","latitudine":41.14092629,"_id":{"$oid":"60b49fb0658076478ce5e47b"},"provincia":"BN","regione":"Campania","longitudine":14.3943766},{"istat":"62039","comune":"Melizzano","latitudine":41.16133116,"_id":{"$oid":"60b49fb0658076478ce5e47c"},"provincia":"BN","regione":"Campania","longitudine":14.50444253},{"istat":"62040","comune":"Moiano","latitudine":41.07824066,"_id":{"$oid":"60b49fb0658076478ce5e47d"},"provincia":"BN","regione":"Campania","longitudine":14.54636351},{"istat":"62041","comune":"Molinara","latitudine":41.29376033,"_id":{"$oid":"60b49fb0658076478ce5e47e"},"provincia":"BN","regione":"Campania","longitudine":14.90990199},{"istat":"62042","comune":"Montefalcone di Val Fortore","latitudine":41.32609614,"_id":{"$oid":"60b49fb0658076478ce5e47f"},"provincia":"BN","regione":"Campania","longitudine":15.00925499},{"istat":"62043","comune":"Montesarchio","latitudine":41.06363722,"_id":{"$oid":"60b49fb0658076478ce5e480"},"provincia":"BN","regione":"Campania","longitudine":14.64054086},{"istat":"62044","comune":"Morcone","latitudine":41.34020414,"_id":{"$oid":"60b49fb0658076478ce5e481"},"provincia":"BN","regione":"Campania","longitudine":14.66404873},{"istat":"62045","comune":"Paduli","latitudine":41.16859857,"_id":{"$oid":"60b49fb0658076478ce5e482"},"provincia":"BN","regione":"Campania","longitudine":14.88730278},{"istat":"62046","comune":"Pago Veiano","latitudine":41.24652793,"_id":{"$oid":"60b49fb0658076478ce5e483"},"provincia":"BN","regione":"Campania","longitudine":14.87351296},{"istat":"62047","comune":"Pannarano","latitudine":41.01129378,"_id":{"$oid":"60b49fb0658076478ce5e484"},"provincia":"BN","regione":"Campania","longitudine":14.70242051},{"istat":"62048","comune":"Paolisi","latitudine":41.03730626,"_id":{"$oid":"60b49fb0658076478ce5e485"},"provincia":"BN","regione":"Campania","longitudine":14.57917957},{"istat":"62049","comune":"Paupisi","latitudine":41.19661931,"_id":{"$oid":"60b49fb0658076478ce5e486"},"provincia":"BN","regione":"Campania","longitudine":14.66457333},{"istat":"62050","comune":"Pesco Sannita","latitudine":41.23435632,"_id":{"$oid":"60b49fb0658076478ce5e487"},"provincia":"BN","regione":"Campania","longitudine":14.81092001},{"istat":"62051","comune":"Pietraroja","latitudine":41.34731855,"_id":{"$oid":"60b49fb0658076478ce5e488"},"provincia":"BN","regione":"Campania","longitudine":14.54987015},{"istat":"62052","comune":"Pietrelcina","latitudine":41.19688012,"_id":{"$oid":"60b49fb0658076478ce5e489"},"provincia":"BN","regione":"Campania","longitudine":14.84874802},{"istat":"62053","comune":"Ponte","latitudine":41.2130152,"_id":{"$oid":"60b49fb0658076478ce5e48a"},"provincia":"BN","regione":"Campania","longitudine":14.68997449},{"istat":"62054","comune":"Pontelandolfo","latitudine":41.28849538,"_id":{"$oid":"60b49fb0658076478ce5e48b"},"provincia":"BN","regione":"Campania","longitudine":14.69073975},{"istat":"62055","comune":"Puglianello","latitudine":41.22178939,"_id":{"$oid":"60b49fb0658076478ce5e48c"},"provincia":"BN","regione":"Campania","longitudine":14.45023497},{"istat":"62056","comune":"Reino","latitudine":41.29228226,"_id":{"$oid":"60b49fb0658076478ce5e48d"},"provincia":"BN","regione":"Campania","longitudine":14.82258257},{"istat":"62057","comune":"San Bartolomeo in Galdo","latitudine":41.40978352,"_id":{"$oid":"60b49fb0658076478ce5e48e"},"provincia":"BN","regione":"Campania","longitudine":15.01507903},{"istat":"62058","comune":"San Giorgio del Sannio","latitudine":41.06240988,"_id":{"$oid":"60b49fb0658076478ce5e48f"},"provincia":"BN","regione":"Campania","longitudine":14.85355966},{"istat":"62059","comune":"San Giorgio La Molara","latitudine":41.27116885,"_id":{"$oid":"60b49fb0658076478ce5e490"},"provincia":"BN","regione":"Campania","longitudine":14.91764227},{"istat":"62060","comune":"San Leucio del Sannio","latitudine":41.07269478,"_id":{"$oid":"60b49fb0658076478ce5e491"},"provincia":"BN","regione":"Campania","longitudine":14.75767623},{"istat":"62061","comune":"San Lorenzello","latitudine":41.27603221,"_id":{"$oid":"60b49fb0658076478ce5e492"},"provincia":"BN","regione":"Campania","longitudine":14.54117138},{"istat":"62062","comune":"San Lorenzo Maggiore","latitudine":41.25030378,"_id":{"$oid":"60b49fb0658076478ce5e493"},"provincia":"BN","regione":"Campania","longitudine":14.62567243},{"istat":"62063","comune":"San Lupo","latitudine":41.26044702,"_id":{"$oid":"60b49fb0658076478ce5e494"},"provincia":"BN","regione":"Campania","longitudine":14.63510545},{"istat":"62064","comune":"San Marco dei Cavoti","latitudine":41.30601106,"_id":{"$oid":"60b49fb0658076478ce5e495"},"provincia":"BN","regione":"Campania","longitudine":14.8806843},{"istat":"62065","comune":"San Martino Sannita","latitudine":41.06545883,"_id":{"$oid":"60b49fb0658076478ce5e496"},"provincia":"BN","regione":"Campania","longitudine":14.83492289},{"istat":"62066","comune":"San Nazzaro","latitudine":41.04971394,"_id":{"$oid":"60b49fb0658076478ce5e497"},"provincia":"BN","regione":"Campania","longitudine":14.8567939},{"istat":"62067","comune":"San Nicola Manfredi","latitudine":41.07246771,"_id":{"$oid":"60b49fb0658076478ce5e498"},"provincia":"BN","regione":"Campania","longitudine":14.8244282},{"istat":"62068","comune":"San Salvatore Telesino","latitudine":41.23579869,"_id":{"$oid":"60b49fb0658076478ce5e499"},"provincia":"BN","regione":"Campania","longitudine":14.49488},{"istat":"62069","comune":"Santa Croce del Sannio","latitudine":41.38792716,"_id":{"$oid":"60b49fb0658076478ce5e49a"},"provincia":"BN","regione":"Campania","longitudine":14.73229291},{"istat":"62070","comune":"Sant'Agata De' Goti","latitudine":"non disponibile","_id":{"$oid":"60b49fb0658076478ce5e49b"},"provincia":"BN","regione":"Campania","longitudine":"non disponibile"},{"istat":"62071","comune":"Sant'Angelo a Cupolo","latitudine":41.06797799,"_id":{"$oid":"60b49fb0658076478ce5e49c"},"provincia":"BN","regione":"Campania","longitudine":14.80350645},{"istat":"62072","comune":"Sassinoro","latitudine":41.37466846,"_id":{"$oid":"60b49fb0658076478ce5e49d"},"provincia":"BN","regione":"Campania","longitudine":14.66230742},{"istat":"62073","comune":"Solopaca","latitudine":41.19401297,"_id":{"$oid":"60b49fb0658076478ce5e49e"},"provincia":"BN","regione":"Campania","longitudine":14.55292382},{"istat":"62074","comune":"Telese Terme","latitudine":41.21950482,"_id":{"$oid":"60b49fb0658076478ce5e49f"},"provincia":"BN","regione":"Campania","longitudine":14.53112065},{"istat":"62075","comune":"Tocco Caudio","latitudine":41.12514712,"_id":{"$oid":"60b49fb0658076478ce5e4a0"},"provincia":"BN","regione":"Campania","longitudine":14.63248011},{"istat":"62076","comune":"Torrecuso","latitudine":41.18589327,"_id":{"$oid":"60b49fb0658076478ce5e4a1"},"provincia":"BN","regione":"Campania","longitudine":14.68101848},{"istat":"62077","comune":"Vitulano","latitudine":41.17284664,"_id":{"$oid":"60b49fb0658076478ce5e4a2"},"provincia":"BN","regione":"Campania","longitudine":14.65004535},{"istat":"62078","comune":"Sant'Arcangelo Trimonte","latitudine":41.16901148,"_id":{"$oid":"60b49fb0658076478ce5e4a3"},"provincia":"BN","regione":"Campania","longitudine":14.93882825},{"istat":"63001","comune":"Acerra","latitudine":40.94586399,"_id":{"$oid":"60b49fb0658076478ce5e4a4"},"provincia":"NA","regione":"Campania","longitudine":14.37118408},{"istat":"63002","comune":"Afragola","latitudine":40.92236049,"_id":{"$oid":"60b49fb0658076478ce5e4a5"},"provincia":"NA","regione":"Campania","longitudine":14.30986619},{"istat":"63003","comune":"Agerola","latitudine":40.63798358,"_id":{"$oid":"60b49fb0658076478ce5e4a6"},"provincia":"NA","regione":"Campania","longitudine":14.54491648},{"istat":"63004","comune":"Anacapri","latitudine":40.55142386,"_id":{"$oid":"60b49fb0658076478ce5e4a7"},"provincia":"NA","regione":"Campania","longitudine":14.21653675},{"istat":"63005","comune":"Arzano","latitudine":40.91062506,"_id":{"$oid":"60b49fb0658076478ce5e4a8"},"provincia":"NA","regione":"Campania","longitudine":14.26920831},{"istat":"63006","comune":"Bacoli","latitudine":40.79708543,"_id":{"$oid":"60b49fb0658076478ce5e4a9"},"provincia":"NA","regione":"Campania","longitudine":14.07840386},{"istat":"63007","comune":"Barano d'Ischia","latitudine":40.71063245,"_id":{"$oid":"60b49fb0658076478ce5e4aa"},"provincia":"NA","regione":"Campania","longitudine":13.91624742},{"istat":"63008","comune":"Boscoreale","latitudine":40.77531827,"_id":{"$oid":"60b49fb0658076478ce5e4ab"},"provincia":"NA","regione":"Campania","longitudine":14.47527288},{"istat":"63009","comune":"Boscotrecase","latitudine":40.77626907,"_id":{"$oid":"60b49fb0658076478ce5e4ac"},"provincia":"NA","regione":"Campania","longitudine":14.46107403},{"istat":"63010","comune":"Brusciano","latitudine":40.92061462,"_id":{"$oid":"60b49fb0658076478ce5e4ad"},"provincia":"NA","regione":"Campania","longitudine":14.42253614},{"istat":"63011","comune":"Caivano","latitudine":40.9567586,"_id":{"$oid":"60b49fb0658076478ce5e4ae"},"provincia":"NA","regione":"Campania","longitudine":14.30106405},{"istat":"63012","comune":"Calvizzano","latitudine":40.90751841,"_id":{"$oid":"60b49fb0658076478ce5e4af"},"provincia":"NA","regione":"Campania","longitudine":14.18959008},{"istat":"63013","comune":"Camposano","latitudine":40.95590031,"_id":{"$oid":"60b49fb0658076478ce5e4b0"},"provincia":"NA","regione":"Campania","longitudine":14.52498309},{"istat":"63014","comune":"Capri","latitudine":40.55096848,"_id":{"$oid":"60b49fb0658076478ce5e4b1"},"provincia":"NA","regione":"Campania","longitudine":14.24304642},{"istat":"63015","comune":"Carbonara di Nola","latitudine":40.87511529,"_id":{"$oid":"60b49fb0658076478ce5e4b2"},"provincia":"NA","regione":"Campania","longitudine":14.57608435},{"istat":"63016","comune":"Cardito","latitudine":40.94647626,"_id":{"$oid":"60b49fb0658076478ce5e4b3"},"provincia":"NA","regione":"Campania","longitudine":14.29533786},{"istat":"63017","comune":"Casalnuovo di Napoli","latitudine":40.91481074,"_id":{"$oid":"60b49fb0658076478ce5e4b4"},"provincia":"NA","regione":"Campania","longitudine":14.3511862},{"istat":"63018","comune":"Casamarciano","latitudine":40.9328915,"_id":{"$oid":"60b49fb0658076478ce5e4b5"},"provincia":"NA","regione":"Campania","longitudine":14.55358491},{"istat":"63019","comune":"Casamicciola Terme","latitudine":40.74671279,"_id":{"$oid":"60b49fb0658076478ce5e4b6"},"provincia":"NA","regione":"Campania","longitudine":13.90747888},{"istat":"63020","comune":"Casandrino","latitudine":40.93573734,"_id":{"$oid":"60b49fb0658076478ce5e4b7"},"provincia":"NA","regione":"Campania","longitudine":14.25137922},{"istat":"63021","comune":"Casavatore","latitudine":40.90011759,"_id":{"$oid":"60b49fb0658076478ce5e4b8"},"provincia":"NA","regione":"Campania","longitudine":14.27452776},{"istat":"63022","comune":"Casola di Napoli","latitudine":40.69435863,"_id":{"$oid":"60b49fb0658076478ce5e4b9"},"provincia":"NA","regione":"Campania","longitudine":14.52863632},{"istat":"63023","comune":"Casoria","latitudine":40.90566059,"_id":{"$oid":"60b49fb0658076478ce5e4ba"},"provincia":"NA","regione":"Campania","longitudine":14.29026011},{"istat":"63024","comune":"Castellammare di Stabia","latitudine":40.69452529,"_id":{"$oid":"60b49fb0658076478ce5e4bb"},"provincia":"NA","regione":"Campania","longitudine":14.48032413},{"istat":"63025","comune":"Castello di Cisterna","latitudine":40.91669614,"_id":{"$oid":"60b49fb0658076478ce5e4bc"},"provincia":"NA","regione":"Campania","longitudine":14.40789431},{"istat":"63026","comune":"Cercola","latitudine":40.86004789,"_id":{"$oid":"60b49fb0658076478ce5e4bd"},"provincia":"NA","regione":"Campania","longitudine":14.35891456},{"istat":"63027","comune":"Cicciano","latitudine":40.96363427,"_id":{"$oid":"60b49fb0658076478ce5e4be"},"provincia":"NA","regione":"Campania","longitudine":14.54320212},{"istat":"63028","comune":"Cimitile","latitudine":40.9397187,"_id":{"$oid":"60b49fb0658076478ce5e4bf"},"provincia":"NA","regione":"Campania","longitudine":14.52673141},{"istat":"63029","comune":"Comiziano","latitudine":40.95251006,"_id":{"$oid":"60b49fb0658076478ce5e4c0"},"provincia":"NA","regione":"Campania","longitudine":14.54934835},{"istat":"63030","comune":"Crispano","latitudine":40.95261244,"_id":{"$oid":"60b49fb0658076478ce5e4c1"},"provincia":"NA","regione":"Campania","longitudine":14.2849217},{"istat":"63031","comune":"Forio","latitudine":40.73778595,"_id":{"$oid":"60b49fb0658076478ce5e4c2"},"provincia":"NA","regione":"Campania","longitudine":13.85726258},{"istat":"63032","comune":"Frattamaggiore","latitudine":40.94120241,"_id":{"$oid":"60b49fb0658076478ce5e4c3"},"provincia":"NA","regione":"Campania","longitudine":14.27258035},{"istat":"63033","comune":"Frattaminore","latitudine":40.95564984,"_id":{"$oid":"60b49fb0658076478ce5e4c4"},"provincia":"NA","regione":"Campania","longitudine":14.27090135},{"istat":"63034","comune":"Giugliano in Campania","latitudine":40.92833418,"_id":{"$oid":"60b49fb0658076478ce5e4c5"},"provincia":"NA","regione":"Campania","longitudine":14.20108889},{"istat":"63035","comune":"Gragnano","latitudine":40.68982752,"_id":{"$oid":"60b49fb0658076478ce5e4c6"},"provincia":"NA","regione":"Campania","longitudine":14.52098181},{"istat":"63036","comune":"Grumo Nevano","latitudine":40.93825066,"_id":{"$oid":"60b49fb0658076478ce5e4c7"},"provincia":"NA","regione":"Campania","longitudine":14.25975251},{"istat":"63037","comune":"Ischia","latitudine":40.74142841,"_id":{"$oid":"60b49fb0658076478ce5e4c8"},"provincia":"NA","regione":"Campania","longitudine":13.94133431},{"istat":"63038","comune":"Lacco Ameno","latitudine":40.75451533,"_id":{"$oid":"60b49fb0658076478ce5e4c9"},"provincia":"NA","regione":"Campania","longitudine":13.88438822},{"istat":"63039","comune":"Lettere","latitudine":40.70441338,"_id":{"$oid":"60b49fb0658076478ce5e4ca"},"provincia":"NA","regione":"Campania","longitudine":14.54461293},{"istat":"63040","comune":"Liveri","latitudine":40.90236257,"_id":{"$oid":"60b49fb0658076478ce5e4cb"},"provincia":"NA","regione":"Campania","longitudine":14.56713469},{"istat":"63041","comune":"Marano di Napoli","latitudine":40.89862689,"_id":{"$oid":"60b49fb0658076478ce5e4cc"},"provincia":"NA","regione":"Campania","longitudine":14.19036418},{"istat":"63042","comune":"Mariglianella","latitudine":40.92662492,"_id":{"$oid":"60b49fb0658076478ce5e4cd"},"provincia":"NA","regione":"Campania","longitudine":14.43852429},{"istat":"63043","comune":"Marigliano","latitudine":40.92523504,"_id":{"$oid":"60b49fb0658076478ce5e4ce"},"provincia":"NA","regione":"Campania","longitudine":14.45701884},{"istat":"63044","comune":"Massa Lubrense","latitudine":40.61112017,"_id":{"$oid":"60b49fb0658076478ce5e4cf"},"provincia":"NA","regione":"Campania","longitudine":14.34403548},{"istat":"63045","comune":"Melito di Napoli","latitudine":40.92402544,"_id":{"$oid":"60b49fb0658076478ce5e4d0"},"provincia":"NA","regione":"Campania","longitudine":14.23270068},{"istat":"63046","comune":"Meta","latitudine":40.64403352,"_id":{"$oid":"60b49fb0658076478ce5e4d1"},"provincia":"NA","regione":"Campania","longitudine":14.4126854},{"istat":"63047","comune":"Monte di Procida","latitudine":40.79500583,"_id":{"$oid":"60b49fb0658076478ce5e4d2"},"provincia":"NA","regione":"Campania","longitudine":14.05389718},{"istat":"63048","comune":"Mugnano di Napoli","latitudine":40.90950996,"_id":{"$oid":"60b49fb0658076478ce5e4d3"},"provincia":"NA","regione":"Campania","longitudine":14.2064913},{"istat":"63049","comune":"Napoli","latitudine":40.83956554,"_id":{"$oid":"60b49fb0658076478ce5e4d4"},"provincia":"NA","regione":"Campania","longitudine":14.25085002},{"istat":"63050","comune":"Nola","latitudine":40.92632842,"_id":{"$oid":"60b49fb0658076478ce5e4d5"},"provincia":"NA","regione":"Campania","longitudine":14.52683267},{"istat":"63051","comune":"Ottaviano","latitudine":40.84936031,"_id":{"$oid":"60b49fb0658076478ce5e4d6"},"provincia":"NA","regione":"Campania","longitudine":14.47744172},{"istat":"63052","comune":"Palma Campania","latitudine":40.86703164,"_id":{"$oid":"60b49fb0658076478ce5e4d7"},"provincia":"NA","regione":"Campania","longitudine":14.55633716},{"istat":"63053","comune":"Piano di Sorrento","latitudine":40.63390065,"_id":{"$oid":"60b49fb0658076478ce5e4d8"},"provincia":"NA","regione":"Campania","longitudine":14.4132217},{"istat":"63054","comune":"Pimonte","latitudine":40.67368689,"_id":{"$oid":"60b49fb0658076478ce5e4d9"},"provincia":"NA","regione":"Campania","longitudine":14.51345416},{"istat":"63055","comune":"Poggiomarino","latitudine":40.79866598,"_id":{"$oid":"60b49fb0658076478ce5e4da"},"provincia":"NA","regione":"Campania","longitudine":14.54080543},{"istat":"63056","comune":"Pollena Trocchia","latitudine":40.85809414,"_id":{"$oid":"60b49fb0658076478ce5e4db"},"provincia":"NA","regione":"Campania","longitudine":14.37874203},{"istat":"63057","comune":"Pomigliano d'Arco","latitudine":40.90689555,"_id":{"$oid":"60b49fb0658076478ce5e4dc"},"provincia":"NA","regione":"Campania","longitudine":14.39335586},{"istat":"63058","comune":"Pompei","latitudine":40.74841783,"_id":{"$oid":"60b49fb0658076478ce5e4dd"},"provincia":"NA","regione":"Campania","longitudine":14.50001431},{"istat":"63059","comune":"Portici","latitudine":40.82375707,"_id":{"$oid":"60b49fb0658076478ce5e4de"},"provincia":"NA","regione":"Campania","longitudine":14.35421459},{"istat":"63060","comune":"Pozzuoli","latitudine":40.84681848,"_id":{"$oid":"60b49fb0658076478ce5e4df"},"provincia":"NA","regione":"Campania","longitudine":14.0908948},{"istat":"63061","comune":"Procida","latitudine":40.76578674,"_id":{"$oid":"60b49fb0658076478ce5e4e0"},"provincia":"NA","regione":"Campania","longitudine":14.02403961},{"istat":"63062","comune":"Qualiano","latitudine":40.9202007,"_id":{"$oid":"60b49fb0658076478ce5e4e1"},"provincia":"NA","regione":"Campania","longitudine":14.15086705},{"istat":"63063","comune":"Quarto","latitudine":40.87770075,"_id":{"$oid":"60b49fb0658076478ce5e4e2"},"provincia":"NA","regione":"Campania","longitudine":14.14350978},{"istat":"63064","comune":"Ercolano","latitudine":40.80927768,"_id":{"$oid":"60b49fb0658076478ce5e4e3"},"provincia":"NA","regione":"Campania","longitudine":14.34571485},{"istat":"63065","comune":"Roccarainola","latitudine":40.97242207,"_id":{"$oid":"60b49fb0658076478ce5e4e4"},"provincia":"NA","regione":"Campania","longitudine":14.56205809},{"istat":"63066","comune":"San Gennaro Vesuviano","latitudine":40.86118903,"_id":{"$oid":"60b49fb0658076478ce5e4e5"},"provincia":"NA","regione":"Campania","longitudine":14.52929174},{"istat":"63067","comune":"San Giorgio a Cremano","latitudine":40.82921168,"_id":{"$oid":"60b49fb0658076478ce5e4e6"},"provincia":"NA","regione":"Campania","longitudine":14.33392579},{"istat":"63068","comune":"San Giuseppe Vesuviano","latitudine":40.83425724,"_id":{"$oid":"60b49fb0658076478ce5e4e7"},"provincia":"NA","regione":"Campania","longitudine":14.50617697},{"istat":"63069","comune":"San Paolo Bel Sito","latitudine":40.91271807,"_id":{"$oid":"60b49fb0658076478ce5e4e8"},"provincia":"NA","regione":"Campania","longitudine":14.5483885},{"istat":"63070","comune":"San Sebastiano al Vesuvio","latitudine":40.84105537,"_id":{"$oid":"60b49fb0658076478ce5e4e9"},"provincia":"NA","regione":"Campania","longitudine":14.37178089},{"istat":"63071","comune":"Sant'Agnello","latitudine":40.63474436,"_id":{"$oid":"60b49fb0658076478ce5e4ea"},"provincia":"NA","regione":"Campania","longitudine":14.39764006},{"istat":"63072","comune":"Sant'Anastasia","latitudine":40.86700769,"_id":{"$oid":"60b49fb0658076478ce5e4eb"},"provincia":"NA","regione":"Campania","longitudine":14.40211956},{"istat":"63073","comune":"Sant'Antimo","latitudine":40.93327136,"_id":{"$oid":"60b49fb0658076478ce5e4ec"},"provincia":"NA","regione":"Campania","longitudine":14.23602873},{"istat":"63074","comune":"Sant'Antonio Abate","latitudine":40.72247196,"_id":{"$oid":"60b49fb0658076478ce5e4ed"},"provincia":"NA","regione":"Campania","longitudine":14.54695442},{"istat":"63075","comune":"San Vitaliano","latitudine":40.92292749,"_id":{"$oid":"60b49fb0658076478ce5e4ee"},"provincia":"NA","regione":"Campania","longitudine":14.48219363},{"istat":"63076","comune":"Saviano","latitudine":40.91112824,"_id":{"$oid":"60b49fb0658076478ce5e4ef"},"provincia":"NA","regione":"Campania","longitudine":14.50962223},{"istat":"63077","comune":"Scisciano","latitudine":40.9174085,"_id":{"$oid":"60b49fb0658076478ce5e4f0"},"provincia":"NA","regione":"Campania","longitudine":14.48281569},{"istat":"63078","comune":"Serrara Fontana","latitudine":40.71185886,"_id":{"$oid":"60b49fb0658076478ce5e4f1"},"provincia":"NA","regione":"Campania","longitudine":13.89310828},{"istat":"63079","comune":"Somma Vesuviana","latitudine":40.86831181,"_id":{"$oid":"60b49fb0658076478ce5e4f2"},"provincia":"NA","regione":"Campania","longitudine":14.4397519},{"istat":"63080","comune":"Sorrento","latitudine":40.6282273,"_id":{"$oid":"60b49fb0658076478ce5e4f3"},"provincia":"NA","regione":"Campania","longitudine":14.37853298},{"istat":"63081","comune":"Striano","latitudine":40.81385972,"_id":{"$oid":"60b49fb0658076478ce5e4f4"},"provincia":"NA","regione":"Campania","longitudine":14.57788595},{"istat":"63082","comune":"Terzigno","latitudine":40.80768222,"_id":{"$oid":"60b49fb0658076478ce5e4f5"},"provincia":"NA","regione":"Campania","longitudine":14.49767475},{"istat":"63083","comune":"Torre Annunziata","latitudine":40.75817312,"_id":{"$oid":"60b49fb0658076478ce5e4f6"},"provincia":"NA","regione":"Campania","longitudine":14.44758612},{"istat":"63084","comune":"Torre del Greco","latitudine":40.78669006,"_id":{"$oid":"60b49fb0658076478ce5e4f7"},"provincia":"NA","regione":"Campania","longitudine":14.36552432},{"istat":"63085","comune":"Tufino","latitudine":40.95558945,"_id":{"$oid":"60b49fb0658076478ce5e4f8"},"provincia":"NA","regione":"Campania","longitudine":14.56516692},{"istat":"63086","comune":"Vico Equense","latitudine":40.66443364,"_id":{"$oid":"60b49fb0658076478ce5e4f9"},"provincia":"NA","regione":"Campania","longitudine":14.42533592},{"istat":"63087","comune":"Villaricca","latitudine":40.92181295,"_id":{"$oid":"60b49fb0658076478ce5e4fa"},"provincia":"NA","regione":"Campania","longitudine":14.19481827},{"istat":"63088","comune":"Visciano","latitudine":40.92372561,"_id":{"$oid":"60b49fb0658076478ce5e4fb"},"provincia":"NA","regione":"Campania","longitudine":14.58724433},{"istat":"63089","comune":"Volla","latitudine":40.87950851,"_id":{"$oid":"60b49fb0658076478ce5e4fc"},"provincia":"NA","regione":"Campania","longitudine":14.34632248},{"istat":"63090","comune":"Santa Maria la Carit√†","latitudine":40.72100053,"_id":{"$oid":"60b49fb0658076478ce5e4fd"},"provincia":"NA","regione":"Campania","longitudine":14.51294142},{"istat":"63091","comune":"Trecase","latitudine":40.76986714,"_id":{"$oid":"60b49fb0658076478ce5e4fe"},"provincia":"NA","regione":"Campania","longitudine":14.43595161},{"istat":"63092","comune":"Massa di Somma","latitudine":40.84660798,"_id":{"$oid":"60b49fb0658076478ce5e4ff"},"provincia":"NA","regione":"Campania","longitudine":14.377398},{"istat":"64001","comune":"Aiello del Sabato","latitudine":40.88916045,"_id":{"$oid":"60b49fb0658076478ce5e500"},"provincia":"AV","regione":"Campania","longitudine":14.81982895},{"istat":"64002","comune":"Altavilla Irpina","latitudine":41.00583009,"_id":{"$oid":"60b49fb0658076478ce5e501"},"provincia":"AV","regione":"Campania","longitudine":14.77745859},{"istat":"64003","comune":"Andretta","latitudine":40.93254843,"_id":{"$oid":"60b49fb0658076478ce5e502"},"provincia":"AV","regione":"Campania","longitudine":15.32147231},{"istat":"64004","comune":"Aquilonia","latitudine":40.98660751,"_id":{"$oid":"60b49fb0658076478ce5e503"},"provincia":"AV","regione":"Campania","longitudine":15.47175714},{"istat":"64005","comune":"Ariano Irpino","latitudine":41.15385883,"_id":{"$oid":"60b49fb0658076478ce5e504"},"provincia":"AV","regione":"Campania","longitudine":15.09006787},{"istat":"64006","comune":"Atripalda","latitudine":40.91799979,"_id":{"$oid":"60b49fb0658076478ce5e505"},"provincia":"AV","regione":"Campania","longitudine":14.83665185},{"istat":"64007","comune":"Avella","latitudine":40.96033617,"_id":{"$oid":"60b49fb0658076478ce5e506"},"provincia":"AV","regione":"Campania","longitudine":14.5999459},{"istat":"64008","comune":"Avellino","latitudine":40.91404698,"_id":{"$oid":"60b49fb0658076478ce5e507"},"provincia":"AV","regione":"Campania","longitudine":14.79528841},{"istat":"64009","comune":"Bagnoli Irpino","latitudine":40.83266201,"_id":{"$oid":"60b49fb0658076478ce5e508"},"provincia":"AV","regione":"Campania","longitudine":15.06982281},{"istat":"64010","comune":"Baiano","latitudine":40.95141659,"_id":{"$oid":"60b49fb0658076478ce5e509"},"provincia":"AV","regione":"Campania","longitudine":14.61712905},{"istat":"64011","comune":"Bisaccia","latitudine":41.01318144,"_id":{"$oid":"60b49fb0658076478ce5e50a"},"provincia":"AV","regione":"Campania","longitudine":15.37502023},{"istat":"64012","comune":"Bonito","latitudine":41.10231266,"_id":{"$oid":"60b49fb0658076478ce5e50b"},"provincia":"AV","regione":"Campania","longitudine":15.00287184},{"istat":"64013","comune":"Cairano","latitudine":40.89634583,"_id":{"$oid":"60b49fb0658076478ce5e50c"},"provincia":"AV","regione":"Campania","longitudine":15.3701511},{"istat":"64014","comune":"Calabritto","latitudine":40.78359575,"_id":{"$oid":"60b49fb0658076478ce5e50d"},"provincia":"AV","regione":"Campania","longitudine":15.21975331},{"istat":"64015","comune":"Calitri","latitudine":40.90045423,"_id":{"$oid":"60b49fb0658076478ce5e50e"},"provincia":"AV","regione":"Campania","longitudine":15.43866059},{"istat":"64016","comune":"Candida","latitudine":40.94130764,"_id":{"$oid":"60b49fb0658076478ce5e50f"},"provincia":"AV","regione":"Campania","longitudine":14.87371614},{"istat":"64017","comune":"Caposele","latitudine":40.8136263,"_id":{"$oid":"60b49fb0658076478ce5e510"},"provincia":"AV","regione":"Campania","longitudine":15.22614616},{"istat":"64018","comune":"Capriglia Irpina","latitudine":40.95580197,"_id":{"$oid":"60b49fb0658076478ce5e511"},"provincia":"AV","regione":"Campania","longitudine":14.77543902},{"istat":"64019","comune":"Carife","latitudine":41.02744097,"_id":{"$oid":"60b49fb0658076478ce5e512"},"provincia":"AV","regione":"Campania","longitudine":15.20812925},{"istat":"64020","comune":"Casalbore","latitudine":41.23420855,"_id":{"$oid":"60b49fb0658076478ce5e513"},"provincia":"AV","regione":"Campania","longitudine":15.00405855},{"istat":"64021","comune":"Cassano Irpino","latitudine":40.87018845,"_id":{"$oid":"60b49fb0658076478ce5e514"},"provincia":"AV","regione":"Campania","longitudine":15.02612109},{"istat":"64022","comune":"Castel Baronia","latitudine":41.04719906,"_id":{"$oid":"60b49fb0658076478ce5e515"},"provincia":"AV","regione":"Campania","longitudine":15.18836128},{"istat":"64023","comune":"Castelfranci","latitudine":40.93067693,"_id":{"$oid":"60b49fb0658076478ce5e516"},"provincia":"AV","regione":"Campania","longitudine":15.04098844},{"istat":"64024","comune":"Castelvetere sul Calore","latitudine":40.929916,"_id":{"$oid":"60b49fb0658076478ce5e517"},"provincia":"AV","regione":"Campania","longitudine":14.98607475},{"istat":"64025","comune":"Cervinara","latitudine":41.02073547,"_id":{"$oid":"60b49fb0658076478ce5e518"},"provincia":"AV","regione":"Campania","longitudine":14.6172194},{"istat":"64026","comune":"Cesinali","latitudine":40.89612766,"_id":{"$oid":"60b49fb0658076478ce5e519"},"provincia":"AV","regione":"Campania","longitudine":14.82975792},{"istat":"64027","comune":"Chianche","latitudine":41.0437038,"_id":{"$oid":"60b49fb0658076478ce5e51a"},"provincia":"AV","regione":"Campania","longitudine":14.79090136},{"istat":"64028","comune":"Chiusano di San Domenico","latitudine":40.9319137,"_id":{"$oid":"60b49fb0658076478ce5e51b"},"provincia":"AV","regione":"Campania","longitudine":14.9167278},{"istat":"64029","comune":"Contrada","latitudine":40.86717659,"_id":{"$oid":"60b49fb0658076478ce5e51c"},"provincia":"AV","regione":"Campania","longitudine":14.77328593},{"istat":"64030","comune":"Conza della Campania","latitudine":40.85724766,"_id":{"$oid":"60b49fb0658076478ce5e51d"},"provincia":"AV","regione":"Campania","longitudine":15.33570326},{"istat":"64031","comune":"Domicella","latitudine":40.87931663,"_id":{"$oid":"60b49fb0658076478ce5e51e"},"provincia":"AV","regione":"Campania","longitudine":14.58677206},{"istat":"64032","comune":"Flumeri","latitudine":41.07341274,"_id":{"$oid":"60b49fb0658076478ce5e51f"},"provincia":"AV","regione":"Campania","longitudine":15.15352418},{"istat":"64033","comune":"Fontanarosa","latitudine":41.02040568,"_id":{"$oid":"60b49fb0658076478ce5e520"},"provincia":"AV","regione":"Campania","longitudine":15.02052275},{"istat":"64034","comune":"Forino","latitudine":40.86173617,"_id":{"$oid":"60b49fb0658076478ce5e521"},"provincia":"AV","regione":"Campania","longitudine":14.73716998},{"istat":"64035","comune":"Frigento","latitudine":41.0119868,"_id":{"$oid":"60b49fb0658076478ce5e522"},"provincia":"AV","regione":"Campania","longitudine":15.09768868},{"istat":"64036","comune":"Gesualdo","latitudine":41.00658622,"_id":{"$oid":"60b49fb0658076478ce5e523"},"provincia":"AV","regione":"Campania","longitudine":15.07043379},{"istat":"64037","comune":"Greci","latitudine":41.24965844,"_id":{"$oid":"60b49fb0658076478ce5e524"},"provincia":"AV","regione":"Campania","longitudine":15.16972604},{"istat":"64038","comune":"Grottaminarda","latitudine":41.07097386,"_id":{"$oid":"60b49fb0658076478ce5e525"},"provincia":"AV","regione":"Campania","longitudine":15.06009606},{"istat":"64039","comune":"Grottolella","latitudine":40.97232978,"_id":{"$oid":"60b49fb0658076478ce5e526"},"provincia":"AV","regione":"Campania","longitudine":14.78616017},{"istat":"64040","comune":"Guardia Lombardi","latitudine":40.95465584,"_id":{"$oid":"60b49fb0658076478ce5e527"},"provincia":"AV","regione":"Campania","longitudine":15.20764925},{"istat":"64041","comune":"Lacedonia","latitudine":41.04944523,"_id":{"$oid":"60b49fb0658076478ce5e528"},"provincia":"AV","regione":"Campania","longitudine":15.42476077},{"istat":"64042","comune":"Lapio","latitudine":40.98448735,"_id":{"$oid":"60b49fb0658076478ce5e529"},"provincia":"AV","regione":"Campania","longitudine":14.94786184},{"istat":"64043","comune":"Lauro","latitudine":40.87827998,"_id":{"$oid":"60b49fb0658076478ce5e52a"},"provincia":"AV","regione":"Campania","longitudine":14.63234651},{"istat":"64044","comune":"Lioni","latitudine":40.8774926,"_id":{"$oid":"60b49fb0658076478ce5e52b"},"provincia":"AV","regione":"Campania","longitudine":15.18844472},{"istat":"64045","comune":"Luogosano","latitudine":40.98776695,"_id":{"$oid":"60b49fb0658076478ce5e52c"},"provincia":"AV","regione":"Campania","longitudine":14.99036768},{"istat":"64046","comune":"Manocalzati","latitudine":40.94143363,"_id":{"$oid":"60b49fb0658076478ce5e52d"},"provincia":"AV","regione":"Campania","longitudine":14.84913222},{"istat":"64047","comune":"Marzano di Nola","latitudine":40.90020918,"_id":{"$oid":"60b49fb0658076478ce5e52e"},"provincia":"AV","regione":"Campania","longitudine":14.58178648},{"istat":"64048","comune":"Melito Irpino","latitudine":41.10289907,"_id":{"$oid":"60b49fb0658076478ce5e52f"},"provincia":"AV","regione":"Campania","longitudine":15.05388527},{"istat":"64049","comune":"Mercogliano","latitudine":40.92011509,"_id":{"$oid":"60b49fb0658076478ce5e530"},"provincia":"AV","regione":"Campania","longitudine":14.7361319},{"istat":"64050","comune":"Mirabella Eclano","latitudine":41.04137986,"_id":{"$oid":"60b49fb0658076478ce5e531"},"provincia":"AV","regione":"Campania","longitudine":14.99217637},{"istat":"64051","comune":"Montaguto","latitudine":41.24905317,"_id":{"$oid":"60b49fb0658076478ce5e532"},"provincia":"AV","regione":"Campania","longitudine":15.25015638},{"istat":"64052","comune":"Montecalvo Irpino","latitudine":41.19419528,"_id":{"$oid":"60b49fb0658076478ce5e533"},"provincia":"AV","regione":"Campania","longitudine":15.03161925},{"istat":"64053","comune":"Montefalcione","latitudine":40.96406724,"_id":{"$oid":"60b49fb0658076478ce5e534"},"provincia":"AV","regione":"Campania","longitudine":14.88450673},{"istat":"64054","comune":"Monteforte Irpino","latitudine":40.89001296,"_id":{"$oid":"60b49fb0658076478ce5e535"},"provincia":"AV","regione":"Campania","longitudine":14.71387573},{"istat":"64055","comune":"Montefredane","latitudine":40.96033326,"_id":{"$oid":"60b49fb0658076478ce5e536"},"provincia":"AV","regione":"Campania","longitudine":14.81298531},{"istat":"64056","comune":"Montefusco","latitudine":41.03769145,"_id":{"$oid":"60b49fb0658076478ce5e537"},"provincia":"AV","regione":"Campania","longitudine":14.85521289},{"istat":"64057","comune":"Montella","latitudine":40.84228603,"_id":{"$oid":"60b49fb0658076478ce5e538"},"provincia":"AV","regione":"Campania","longitudine":15.01665759},{"istat":"64058","comune":"Montemarano","latitudine":40.9198231,"_id":{"$oid":"60b49fb0658076478ce5e539"},"provincia":"AV","regione":"Campania","longitudine":14.99692121},{"istat":"64059","comune":"Montemiletto","latitudine":41.01146661,"_id":{"$oid":"60b49fb0658076478ce5e53a"},"provincia":"AV","regione":"Campania","longitudine":14.90719412},{"istat":"64060","comune":"Monteverde","latitudine":40.9998117,"_id":{"$oid":"60b49fb0658076478ce5e53b"},"provincia":"AV","regione":"Campania","longitudine":15.53273882},{"istat":"64063","comune":"Morra De Sanctis","latitudine":40.92311991,"_id":{"$oid":"60b49fb0658076478ce5e53c"},"provincia":"AV","regione":"Campania","longitudine":15.24396648},{"istat":"64064","comune":"Moschiano","latitudine":40.87466861,"_id":{"$oid":"60b49fb0658076478ce5e53d"},"provincia":"AV","regione":"Campania","longitudine":14.65948381},{"istat":"64065","comune":"Mugnano del Cardinale","latitudine":40.93962605,"_id":{"$oid":"60b49fb0658076478ce5e53e"},"provincia":"AV","regione":"Campania","longitudine":14.64256166},{"istat":"64066","comune":"Nusco","latitudine":40.88613977,"_id":{"$oid":"60b49fb0658076478ce5e53f"},"provincia":"AV","regione":"Campania","longitudine":15.08447214},{"istat":"64067","comune":"Ospedaletto d'Alpinolo","latitudine":40.93919199,"_id":{"$oid":"60b49fb0658076478ce5e540"},"provincia":"AV","regione":"Campania","longitudine":14.74554627},{"istat":"64068","comune":"Pago del Vallo di Lauro","latitudine":40.89678318,"_id":{"$oid":"60b49fb0658076478ce5e541"},"provincia":"AV","regione":"Campania","longitudine":14.60518668},{"istat":"64069","comune":"Parolise","latitudine":40.93089171,"_id":{"$oid":"60b49fb0658076478ce5e542"},"provincia":"AV","regione":"Campania","longitudine":14.88241645},{"istat":"64070","comune":"Paternopoli","latitudine":40.97416859,"_id":{"$oid":"60b49fb0658076478ce5e543"},"provincia":"AV","regione":"Campania","longitudine":15.03493023},{"istat":"64071","comune":"Petruro Irpino","latitudine":41.03158777,"_id":{"$oid":"60b49fb0658076478ce5e544"},"provincia":"AV","regione":"Campania","longitudine":14.79729044},{"istat":"64072","comune":"Pietradefusi","latitudine":41.03740745,"_id":{"$oid":"60b49fb0658076478ce5e545"},"provincia":"AV","regione":"Campania","longitudine":14.88931134},{"istat":"64073","comune":"Pietrastornina","latitudine":40.9920379,"_id":{"$oid":"60b49fb0658076478ce5e546"},"provincia":"AV","regione":"Campania","longitudine":14.7295658},{"istat":"64074","comune":"Prata di Principato Ultra","latitudine":40.9864953,"_id":{"$oid":"60b49fb0658076478ce5e547"},"provincia":"AV","regione":"Campania","longitudine":14.83708173},{"istat":"64075","comune":"Pratola Serra","latitudine":40.98539583,"_id":{"$oid":"60b49fb0658076478ce5e548"},"provincia":"AV","regione":"Campania","longitudine":14.85232404},{"istat":"64076","comune":"Quadrelle","latitudine":40.94710126,"_id":{"$oid":"60b49fb0658076478ce5e549"},"provincia":"AV","regione":"Campania","longitudine":14.63818968},{"istat":"64077","comune":"Quindici","latitudine":40.86250574,"_id":{"$oid":"60b49fb0658076478ce5e54a"},"provincia":"AV","regione":"Campania","longitudine":14.64823982},{"istat":"64078","comune":"Roccabascerana","latitudine":41.01810007,"_id":{"$oid":"60b49fb0658076478ce5e54b"},"provincia":"AV","regione":"Campania","longitudine":14.7164608},{"istat":"64079","comune":"Rocca San Felice","latitudine":40.95101486,"_id":{"$oid":"60b49fb0658076478ce5e54c"},"provincia":"AV","regione":"Campania","longitudine":15.16512361},{"istat":"64080","comune":"Rotondi","latitudine":41.0340276,"_id":{"$oid":"60b49fb0658076478ce5e54d"},"provincia":"AV","regione":"Campania","longitudine":14.59640064},{"istat":"64081","comune":"Salza Irpina","latitudine":40.9180322,"_id":{"$oid":"60b49fb0658076478ce5e54e"},"provincia":"AV","regione":"Campania","longitudine":14.89109819},{"istat":"64082","comune":"San Mango sul Calore","latitudine":40.95889899,"_id":{"$oid":"60b49fb0658076478ce5e54f"},"provincia":"AV","regione":"Campania","longitudine":14.97251308},{"istat":"64083","comune":"San Martino Valle Caudina","latitudine":41.02546343,"_id":{"$oid":"60b49fb0658076478ce5e550"},"provincia":"AV","regione":"Campania","longitudine":14.66485987},{"istat":"64084","comune":"San Michele di Serino","latitudine":40.87717111,"_id":{"$oid":"60b49fb0658076478ce5e551"},"provincia":"AV","regione":"Campania","longitudine":14.85550389},{"istat":"64085","comune":"San Nicola Baronia","latitudine":41.05945327,"_id":{"$oid":"60b49fb0658076478ce5e552"},"provincia":"AV","regione":"Campania","longitudine":15.1981313},{"istat":"64086","comune":"San Potito Ultra","latitudine":40.92795775,"_id":{"$oid":"60b49fb0658076478ce5e553"},"provincia":"AV","regione":"Campania","longitudine":14.87123621},{"istat":"64087","comune":"San Sossio Baronia","latitudine":41.06694004,"_id":{"$oid":"60b49fb0658076478ce5e554"},"provincia":"AV","regione":"Campania","longitudine":15.20329259},{"istat":"64088","comune":"Santa Lucia di Serino","latitudine":40.87327776,"_id":{"$oid":"60b49fb0658076478ce5e555"},"provincia":"AV","regione":"Campania","longitudine":14.87201353},{"istat":"64089","comune":"Sant'Andrea di Conza","latitudine":40.8441276,"_id":{"$oid":"60b49fb0658076478ce5e556"},"provincia":"AV","regione":"Campania","longitudine":15.37173773},{"istat":"64090","comune":"Sant'Angelo all'Esca","latitudine":41.00652306,"_id":{"$oid":"60b49fb0658076478ce5e557"},"provincia":"AV","regione":"Campania","longitudine":14.9931644},{"istat":"64091","comune":"Sant'Angelo a Scala","latitudine":40.97592276,"_id":{"$oid":"60b49fb0658076478ce5e558"},"provincia":"AV","regione":"Campania","longitudine":14.73969557},{"istat":"64092","comune":"Sant'Angelo dei Lombardi","latitudine":40.92740593,"_id":{"$oid":"60b49fb0658076478ce5e559"},"provincia":"AV","regione":"Campania","longitudine":15.17650215},{"istat":"64093","comune":"Santa Paolina","latitudine":41.02201833,"_id":{"$oid":"60b49fb0658076478ce5e55a"},"provincia":"AV","regione":"Campania","longitudine":14.84630005},{"istat":"64095","comune":"Santo Stefano del Sole","latitudine":40.89414063,"_id":{"$oid":"60b49fb0658076478ce5e55b"},"provincia":"AV","regione":"Campania","longitudine":14.86673772},{"istat":"64096","comune":"Savignano Irpino","latitudine":41.22824236,"_id":{"$oid":"60b49fb0658076478ce5e55c"},"provincia":"AV","regione":"Campania","longitudine":15.17744194},{"istat":"64097","comune":"Scampitella","latitudine":41.092238,"_id":{"$oid":"60b49fb0658076478ce5e55d"},"provincia":"AV","regione":"Campania","longitudine":15.29644646},{"istat":"64098","comune":"Senerchia","latitudine":40.74133261,"_id":{"$oid":"60b49fb0658076478ce5e55e"},"provincia":"AV","regione":"Campania","longitudine":15.20501562},{"istat":"64099","comune":"Serino","latitudine":40.85518973,"_id":{"$oid":"60b49fb0658076478ce5e55f"},"provincia":"AV","regione":"Campania","longitudine":14.87230746},{"istat":"64100","comune":"Sirignano","latitudine":40.94768496,"_id":{"$oid":"60b49fb0658076478ce5e560"},"provincia":"AV","regione":"Campania","longitudine":14.62882453},{"istat":"64101","comune":"Solofra","latitudine":40.83056029,"_id":{"$oid":"60b49fb0658076478ce5e561"},"provincia":"AV","regione":"Campania","longitudine":14.84650623},{"istat":"64102","comune":"Sorbo Serpico","latitudine":40.91685069,"_id":{"$oid":"60b49fb0658076478ce5e562"},"provincia":"AV","regione":"Campania","longitudine":14.88709497},{"istat":"64103","comune":"Sperone","latitudine":40.95191535,"_id":{"$oid":"60b49fb0658076478ce5e563"},"provincia":"AV","regione":"Campania","longitudine":14.60282378},{"istat":"64104","comune":"Sturno","latitudine":41.02217144,"_id":{"$oid":"60b49fb0658076478ce5e564"},"provincia":"AV","regione":"Campania","longitudine":15.11247993},{"istat":"64105","comune":"Summonte","latitudine":40.95008734,"_id":{"$oid":"60b49fb0658076478ce5e565"},"provincia":"AV","regione":"Campania","longitudine":14.74697511},{"istat":"64106","comune":"Taurano","latitudine":40.88402399,"_id":{"$oid":"60b49fb0658076478ce5e566"},"provincia":"AV","regione":"Campania","longitudine":14.63611268},{"istat":"64107","comune":"Taurasi","latitudine":41.00680479,"_id":{"$oid":"60b49fb0658076478ce5e567"},"provincia":"AV","regione":"Campania","longitudine":14.95788884},{"istat":"64108","comune":"Teora","latitudine":40.85109065,"_id":{"$oid":"60b49fb0658076478ce5e568"},"provincia":"AV","regione":"Campania","longitudine":15.25278579},{"istat":"64109","comune":"Torella dei Lombardi","latitudine":40.9421849,"_id":{"$oid":"60b49fb0658076478ce5e569"},"provincia":"AV","regione":"Campania","longitudine":15.11455072},{"istat":"64110","comune":"Torre Le Nocelle","latitudine":41.02075599,"_id":{"$oid":"60b49fb0658076478ce5e56a"},"provincia":"AV","regione":"Campania","longitudine":14.91263268},{"istat":"64111","comune":"Torrioni","latitudine":41.03410042,"_id":{"$oid":"60b49fb0658076478ce5e56b"},"provincia":"AV","regione":"Campania","longitudine":14.81351286},{"istat":"64112","comune":"Trevico","latitudine":41.04808037,"_id":{"$oid":"60b49fb0658076478ce5e56c"},"provincia":"AV","regione":"Campania","longitudine":15.232918},{"istat":"64113","comune":"Tufo","latitudine":41.00995285,"_id":{"$oid":"60b49fb0658076478ce5e56d"},"provincia":"AV","regione":"Campania","longitudine":14.82425423},{"istat":"64114","comune":"Vallata","latitudine":41.03692496,"_id":{"$oid":"60b49fb0658076478ce5e56e"},"provincia":"AV","regione":"Campania","longitudine":15.25135623},{"istat":"64115","comune":"Vallesaccarda","latitudine":41.06441021,"_id":{"$oid":"60b49fb0658076478ce5e56f"},"provincia":"AV","regione":"Campania","longitudine":15.25196934},{"istat":"64116","comune":"Venticano","latitudine":41.046155,"_id":{"$oid":"60b49fb0658076478ce5e570"},"provincia":"AV","regione":"Campania","longitudine":14.9175222},{"istat":"64117","comune":"Villamaina","latitudine":40.97121879,"_id":{"$oid":"60b49fb0658076478ce5e571"},"provincia":"AV","regione":"Campania","longitudine":15.08817941},{"istat":"64118","comune":"Villanova del Battista","latitudine":41.12245092,"_id":{"$oid":"60b49fb0658076478ce5e572"},"provincia":"AV","regione":"Campania","longitudine":15.15847289},{"istat":"64119","comune":"Volturara Irpina","latitudine":40.87882068,"_id":{"$oid":"60b49fb0658076478ce5e573"},"provincia":"AV","regione":"Campania","longitudine":14.91716971},{"istat":"64120","comune":"Zungoli","latitudine":41.12766031,"_id":{"$oid":"60b49fb0658076478ce5e574"},"provincia":"AV","regione":"Campania","longitudine":15.2025556},{"istat":"64121","comune":"Montoro","latitudine":40.8216,"_id":{"$oid":"60b49fb0658076478ce5e575"},"provincia":"AV","regione":"Campania","longitudine":14.76},{"istat":"65001","comune":"Acerno","latitudine":40.738303,"_id":{"$oid":"60b49fb0658076478ce5e576"},"provincia":"SA","regione":"Campania","longitudine":15.05943917},{"istat":"65002","comune":"Agropoli","latitudine":40.34962772,"_id":{"$oid":"60b49fb0658076478ce5e577"},"provincia":"SA","regione":"Campania","longitudine":14.99158917},{"istat":"65003","comune":"Albanella","latitudine":40.47977693,"_id":{"$oid":"60b49fb0658076478ce5e578"},"provincia":"SA","regione":"Campania","longitudine":15.11515285},{"istat":"65004","comune":"Alfano","latitudine":40.17766666,"_id":{"$oid":"60b49fb0658076478ce5e579"},"provincia":"SA","regione":"Campania","longitudine":15.42591415},{"istat":"65005","comune":"Altavilla Silentina","latitudine":40.5271738,"_id":{"$oid":"60b49fb0658076478ce5e57a"},"provincia":"SA","regione":"Campania","longitudine":15.13759173},{"istat":"65006","comune":"Amalfi","latitudine":40.63424015,"_id":{"$oid":"60b49fb0658076478ce5e57b"},"provincia":"SA","regione":"Campania","longitudine":14.60521014},{"istat":"65007","comune":"Angri","latitudine":40.74321786,"_id":{"$oid":"60b49fb0658076478ce5e57c"},"provincia":"SA","regione":"Campania","longitudine":14.56844128},{"istat":"65008","comune":"Aquara","latitudine":40.44280787,"_id":{"$oid":"60b49fb0658076478ce5e57d"},"provincia":"SA","regione":"Campania","longitudine":15.25320988},{"istat":"65009","comune":"Ascea","latitudine":40.14337522,"_id":{"$oid":"60b49fb0658076478ce5e57e"},"provincia":"SA","regione":"Campania","longitudine":15.18401535},{"istat":"65010","comune":"Atena Lucana","latitudine":40.45463856,"_id":{"$oid":"60b49fb0658076478ce5e57f"},"provincia":"SA","regione":"Campania","longitudine":15.55815913},{"istat":"65011","comune":"Atrani","latitudine":40.63651748,"_id":{"$oid":"60b49fb0658076478ce5e580"},"provincia":"SA","regione":"Campania","longitudine":14.60842588},{"istat":"65012","comune":"Auletta","latitudine":40.55814193,"_id":{"$oid":"60b49fb0658076478ce5e581"},"provincia":"SA","regione":"Campania","longitudine":15.42410729},{"istat":"65013","comune":"Baronissi","latitudine":40.74643066,"_id":{"$oid":"60b49fb0658076478ce5e582"},"provincia":"SA","regione":"Campania","longitudine":14.77021449},{"istat":"65014","comune":"Battipaglia","latitudine":40.60767715,"_id":{"$oid":"60b49fb0658076478ce5e583"},"provincia":"SA","regione":"Campania","longitudine":14.98344118},{"istat":"65015","comune":"Bellosguardo","latitudine":40.42181689,"_id":{"$oid":"60b49fb0658076478ce5e584"},"provincia":"SA","regione":"Campania","longitudine":15.31021488},{"istat":"65016","comune":"Bracigliano","latitudine":40.82473827,"_id":{"$oid":"60b49fb0658076478ce5e585"},"provincia":"SA","regione":"Campania","longitudine":14.7110483},{"istat":"65017","comune":"Buccino","latitudine":40.63105957,"_id":{"$oid":"60b49fb0658076478ce5e586"},"provincia":"SA","regione":"Campania","longitudine":15.36732267},{"istat":"65018","comune":"Buonabitacolo","latitudine":40.26880972,"_id":{"$oid":"60b49fb0658076478ce5e587"},"provincia":"SA","regione":"Campania","longitudine":15.6193631},{"istat":"65019","comune":"Caggiano","latitudine":40.56715845,"_id":{"$oid":"60b49fb0658076478ce5e588"},"provincia":"SA","regione":"Campania","longitudine":15.49648212},{"istat":"65020","comune":"Calvanico","latitudine":40.77618838,"_id":{"$oid":"60b49fb0658076478ce5e589"},"provincia":"SA","regione":"Campania","longitudine":14.82938846},{"istat":"65021","comune":"Camerota","latitudine":40.03319085,"_id":{"$oid":"60b49fb0658076478ce5e58a"},"provincia":"SA","regione":"Campania","longitudine":15.37015789},{"istat":"65022","comune":"Campagna","latitudine":40.66560507,"_id":{"$oid":"60b49fb0658076478ce5e58b"},"provincia":"SA","regione":"Campania","longitudine":15.10702337},{"istat":"65023","comune":"Campora","latitudine":40.30525408,"_id":{"$oid":"60b49fb0658076478ce5e58c"},"provincia":"SA","regione":"Campania","longitudine":15.29274679},{"istat":"65024","comune":"Cannalonga","latitudine":40.24358439,"_id":{"$oid":"60b49fb0658076478ce5e58d"},"provincia":"SA","regione":"Campania","longitudine":15.29260531},{"istat":"65025","comune":"Capaccio Paestum","latitudine":40.42303253,"_id":{"$oid":"60b49fb0658076478ce5e58e"},"provincia":"SA","regione":"Campania","longitudine":15.08075018},{"istat":"65026","comune":"Casalbuono","latitudine":40.21445576,"_id":{"$oid":"60b49fb0658076478ce5e58f"},"provincia":"SA","regione":"Campania","longitudine":15.68296763},{"istat":"65027","comune":"Casaletto Spartano","latitudine":40.15165481,"_id":{"$oid":"60b49fb0658076478ce5e590"},"provincia":"SA","regione":"Campania","longitudine":15.61856324},{"istat":"65028","comune":"Casal Velino","latitudine":40.18895029,"_id":{"$oid":"60b49fb0658076478ce5e591"},"provincia":"SA","regione":"Campania","longitudine":15.10958371},{"istat":"65029","comune":"Caselle in Pittari","latitudine":40.17243756,"_id":{"$oid":"60b49fb0658076478ce5e592"},"provincia":"SA","regione":"Campania","longitudine":15.54391906},{"istat":"65030","comune":"Castelcivita","latitudine":40.49297088,"_id":{"$oid":"60b49fb0658076478ce5e593"},"provincia":"SA","regione":"Campania","longitudine":15.23299597},{"istat":"65031","comune":"Castellabate","latitudine":40.28643787,"_id":{"$oid":"60b49fb0658076478ce5e594"},"provincia":"SA","regione":"Campania","longitudine":14.94919693},{"istat":"65032","comune":"Castelnuovo Cilento","latitudine":40.21846064,"_id":{"$oid":"60b49fb0658076478ce5e595"},"provincia":"SA","regione":"Campania","longitudine":15.17802281},{"istat":"65033","comune":"Castelnuovo di Conza","latitudine":40.81816168,"_id":{"$oid":"60b49fb0658076478ce5e596"},"provincia":"SA","regione":"Campania","longitudine":15.3212614},{"istat":"65034","comune":"Castel San Giorgio","latitudine":40.78015493,"_id":{"$oid":"60b49fb0658076478ce5e597"},"provincia":"SA","regione":"Campania","longitudine":14.69776639},{"istat":"65035","comune":"Castel San Lorenzo","latitudine":40.4168339,"_id":{"$oid":"60b49fb0658076478ce5e598"},"provincia":"SA","regione":"Campania","longitudine":15.2277694},{"istat":"65036","comune":"Castiglione del Genovesi","latitudine":40.72504572,"_id":{"$oid":"60b49fb0658076478ce5e599"},"provincia":"SA","regione":"Campania","longitudine":14.84822627},{"istat":"65037","comune":"Cava de' Tirreni","latitudine":40.70080592,"_id":{"$oid":"60b49fb0658076478ce5e59a"},"provincia":"SA","regione":"Campania","longitudine":14.70597263},{"istat":"65038","comune":"Celle di Bulgheria","latitudine":40.09491702,"_id":{"$oid":"60b49fb0658076478ce5e59b"},"provincia":"SA","regione":"Campania","longitudine":15.40573557},{"istat":"65039","comune":"Centola","latitudine":40.06581271,"_id":{"$oid":"60b49fb0658076478ce5e59c"},"provincia":"SA","regione":"Campania","longitudine":15.30985282},{"istat":"65040","comune":"Ceraso","latitudine":40.19295735,"_id":{"$oid":"60b49fb0658076478ce5e59d"},"provincia":"SA","regione":"Campania","longitudine":15.25854922},{"istat":"65041","comune":"Cetara","latitudine":40.64675721,"_id":{"$oid":"60b49fb0658076478ce5e59e"},"provincia":"SA","regione":"Campania","longitudine":14.70091545},{"istat":"65042","comune":"Cicerale","latitudine":40.34367888,"_id":{"$oid":"60b49fb0658076478ce5e59f"},"provincia":"SA","regione":"Campania","longitudine":15.12671799},{"istat":"65043","comune":"Colliano","latitudine":40.72519023,"_id":{"$oid":"60b49fb0658076478ce5e5a0"},"provincia":"SA","regione":"Campania","longitudine":15.29243072},{"istat":"65044","comune":"Conca dei Marini","latitudine":40.61787925,"_id":{"$oid":"60b49fb0658076478ce5e5a1"},"provincia":"SA","regione":"Campania","longitudine":14.57424895},{"istat":"65045","comune":"Controne","latitudine":40.5097371,"_id":{"$oid":"60b49fb0658076478ce5e5a2"},"provincia":"SA","regione":"Campania","longitudine":15.20382179},{"istat":"65046","comune":"Contursi Terme","latitudine":40.64914887,"_id":{"$oid":"60b49fb0658076478ce5e5a3"},"provincia":"SA","regione":"Campania","longitudine":15.24108792},{"istat":"65047","comune":"Corbara","latitudine":40.72278294,"_id":{"$oid":"60b49fb0658076478ce5e5a4"},"provincia":"SA","regione":"Campania","longitudine":14.59252635},{"istat":"65048","comune":"Corleto Monforte","latitudine":40.43759293,"_id":{"$oid":"60b49fb0658076478ce5e5a5"},"provincia":"SA","regione":"Campania","longitudine":15.3808319},{"istat":"65049","comune":"Cuccaro Vetere","latitudine":40.16404177,"_id":{"$oid":"60b49fb0658076478ce5e5a6"},"provincia":"SA","regione":"Campania","longitudine":15.30677565},{"istat":"65050","comune":"Eboli","latitudine":40.61818665,"_id":{"$oid":"60b49fb0658076478ce5e5a7"},"provincia":"SA","regione":"Campania","longitudine":15.05445396},{"istat":"65051","comune":"Felitto","latitudine":40.37069734,"_id":{"$oid":"60b49fb0658076478ce5e5a8"},"provincia":"SA","regione":"Campania","longitudine":15.24796465},{"istat":"65052","comune":"Fisciano","latitudine":40.77147015,"_id":{"$oid":"60b49fb0658076478ce5e5a9"},"provincia":"SA","regione":"Campania","longitudine":14.79914629},{"istat":"65053","comune":"Furore","latitudine":40.6202308,"_id":{"$oid":"60b49fb0658076478ce5e5aa"},"provincia":"SA","regione":"Campania","longitudine":14.55018156},{"istat":"65054","comune":"Futani","latitudine":40.1515587,"_id":{"$oid":"60b49fb0658076478ce5e5ab"},"provincia":"SA","regione":"Campania","longitudine":15.32365677},{"istat":"65055","comune":"Giffoni Sei Casali","latitudine":40.71885055,"_id":{"$oid":"60b49fb0658076478ce5e5ac"},"provincia":"SA","regione":"Campania","longitudine":14.90366253},{"istat":"65056","comune":"Giffoni Valle Piana","latitudine":40.71749901,"_id":{"$oid":"60b49fb0658076478ce5e5ad"},"provincia":"SA","regione":"Campania","longitudine":14.94330697},{"istat":"65057","comune":"Gioi","latitudine":40.28988655,"_id":{"$oid":"60b49fb0658076478ce5e5ae"},"provincia":"SA","regione":"Campania","longitudine":15.21750556},{"istat":"65058","comune":"Giungano","latitudine":40.39449625,"_id":{"$oid":"60b49fb0658076478ce5e5af"},"provincia":"SA","regione":"Campania","longitudine":15.1079167},{"istat":"65059","comune":"Ispani","latitudine":40.08578455,"_id":{"$oid":"60b49fb0658076478ce5e5b0"},"provincia":"SA","regione":"Campania","longitudine":15.56174844},{"istat":"65060","comune":"Laureana Cilento","latitudine":40.30089628,"_id":{"$oid":"60b49fb0658076478ce5e5b1"},"provincia":"SA","regione":"Campania","longitudine":15.0389141},{"istat":"65061","comune":"Laurino","latitudine":40.33673573,"_id":{"$oid":"60b49fb0658076478ce5e5b2"},"provincia":"SA","regione":"Campania","longitudine":15.33665078},{"istat":"65062","comune":"Laurito","latitudine":40.16852532,"_id":{"$oid":"60b49fb0658076478ce5e5b3"},"provincia":"SA","regione":"Campania","longitudine":15.4082743},{"istat":"65063","comune":"Laviano","latitudine":40.78461052,"_id":{"$oid":"60b49fb0658076478ce5e5b4"},"provincia":"SA","regione":"Campania","longitudine":15.30507214},{"istat":"65064","comune":"Lustra","latitudine":40.28840206,"_id":{"$oid":"60b49fb0658076478ce5e5b5"},"provincia":"SA","regione":"Campania","longitudine":15.06831965},{"istat":"65065","comune":"Magliano Vetere","latitudine":40.34702141,"_id":{"$oid":"60b49fb0658076478ce5e5b6"},"provincia":"SA","regione":"Campania","longitudine":15.23635242},{"istat":"65066","comune":"Maiori","latitudine":40.65086502,"_id":{"$oid":"60b49fb0658076478ce5e5b7"},"provincia":"SA","regione":"Campania","longitudine":14.64223366},{"istat":"65067","comune":"Mercato San Severino","latitudine":40.7862946,"_id":{"$oid":"60b49fb0658076478ce5e5b8"},"provincia":"SA","regione":"Campania","longitudine":14.75357737},{"istat":"65068","comune":"Minori","latitudine":40.64966885,"_id":{"$oid":"60b49fb0658076478ce5e5b9"},"provincia":"SA","regione":"Campania","longitudine":14.62615215},{"istat":"65069","comune":"Moio della Civitella","latitudine":40.24504519,"_id":{"$oid":"60b49fb0658076478ce5e5ba"},"provincia":"SA","regione":"Campania","longitudine":15.27040016},{"istat":"65070","comune":"Montano Antilia","latitudine":40.16238439,"_id":{"$oid":"60b49fb0658076478ce5e5bb"},"provincia":"SA","regione":"Campania","longitudine":15.36150956},{"istat":"65071","comune":"Montecorice","latitudine":40.2344441,"_id":{"$oid":"60b49fb0658076478ce5e5bc"},"provincia":"SA","regione":"Campania","longitudine":14.98504292},{"istat":"65072","comune":"Montecorvino Pugliano","latitudine":40.67615197,"_id":{"$oid":"60b49fb0658076478ce5e5bd"},"provincia":"SA","regione":"Campania","longitudine":14.93025526},{"istat":"65073","comune":"Montecorvino Rovella","latitudine":40.69579529,"_id":{"$oid":"60b49fb0658076478ce5e5be"},"provincia":"SA","regione":"Campania","longitudine":14.97694216},{"istat":"65074","comune":"Monteforte Cilento","latitudine":40.36468598,"_id":{"$oid":"60b49fb0658076478ce5e5bf"},"provincia":"SA","regione":"Campania","longitudine":15.1946132},{"istat":"65075","comune":"Monte San Giacomo","latitudine":40.34139154,"_id":{"$oid":"60b49fb0658076478ce5e5c0"},"provincia":"SA","regione":"Campania","longitudine":15.54367406},{"istat":"65076","comune":"Montesano sulla Marcellana","latitudine":40.27557832,"_id":{"$oid":"60b49fb0658076478ce5e5c1"},"provincia":"SA","regione":"Campania","longitudine":15.70118507},{"istat":"65077","comune":"Morigerati","latitudine":40.14055717,"_id":{"$oid":"60b49fb0658076478ce5e5c2"},"provincia":"SA","regione":"Campania","longitudine":15.55508055},{"istat":"65078","comune":"Nocera Inferiore","latitudine":40.74358321,"_id":{"$oid":"60b49fb0658076478ce5e5c3"},"provincia":"SA","regione":"Campania","longitudine":14.64142303},{"istat":"65079","comune":"Nocera Superiore","latitudine":40.74156986,"_id":{"$oid":"60b49fb0658076478ce5e5c4"},"provincia":"SA","regione":"Campania","longitudine":14.67117888},{"istat":"65080","comune":"Novi Velia","latitudine":40.22457101,"_id":{"$oid":"60b49fb0658076478ce5e5c5"},"provincia":"SA","regione":"Campania","longitudine":15.28710598},{"istat":"65081","comune":"Ogliastro Cilento","latitudine":40.35112816,"_id":{"$oid":"60b49fb0658076478ce5e5c6"},"provincia":"SA","regione":"Campania","longitudine":15.0463799},{"istat":"65082","comune":"Olevano sul Tusciano","latitudine":40.65735787,"_id":{"$oid":"60b49fb0658076478ce5e5c7"},"provincia":"SA","regione":"Campania","longitudine":15.02199175},{"istat":"65083","comune":"Oliveto Citra","latitudine":40.69162499,"_id":{"$oid":"60b49fb0658076478ce5e5c8"},"provincia":"SA","regione":"Campania","longitudine":15.23612189},{"istat":"65084","comune":"Omignano","latitudine":40.24932151,"_id":{"$oid":"60b49fb0658076478ce5e5c9"},"provincia":"SA","regione":"Campania","longitudine":15.08406539},{"istat":"65085","comune":"Orria","latitudine":40.2994358,"_id":{"$oid":"60b49fb0658076478ce5e5ca"},"provincia":"SA","regione":"Campania","longitudine":15.17140938},{"istat":"65086","comune":"Ottati","latitudine":40.46332147,"_id":{"$oid":"60b49fb0658076478ce5e5cb"},"provincia":"SA","regione":"Campania","longitudine":15.31533553},{"istat":"65087","comune":"Padula","latitudine":40.34105151,"_id":{"$oid":"60b49fb0658076478ce5e5cc"},"provincia":"SA","regione":"Campania","longitudine":15.6595203},{"istat":"65088","comune":"Pagani","latitudine":40.74107352,"_id":{"$oid":"60b49fb0658076478ce5e5cd"},"provincia":"SA","regione":"Campania","longitudine":14.61944041},{"istat":"65089","comune":"Palomonte","latitudine":40.66015522,"_id":{"$oid":"60b49fb0658076478ce5e5ce"},"provincia":"SA","regione":"Campania","longitudine":15.29173957},{"istat":"65090","comune":"Pellezzano","latitudine":40.72587297,"_id":{"$oid":"60b49fb0658076478ce5e5cf"},"provincia":"SA","regione":"Campania","longitudine":14.75782962},{"istat":"65091","comune":"Perdifumo","latitudine":40.26694175,"_id":{"$oid":"60b49fb0658076478ce5e5d0"},"provincia":"SA","regione":"Campania","longitudine":15.0165195},{"istat":"65092","comune":"Perito","latitudine":40.29853863,"_id":{"$oid":"60b49fb0658076478ce5e5d1"},"provincia":"SA","regione":"Campania","longitudine":15.14745558},{"istat":"65093","comune":"Pertosa","latitudine":40.54320589,"_id":{"$oid":"60b49fb0658076478ce5e5d2"},"provincia":"SA","regione":"Campania","longitudine":15.44852735},{"istat":"65094","comune":"Petina","latitudine":40.53140417,"_id":{"$oid":"60b49fb0658076478ce5e5d3"},"provincia":"SA","regione":"Campania","longitudine":15.37018384},{"istat":"65095","comune":"Piaggine","latitudine":40.34317707,"_id":{"$oid":"60b49fb0658076478ce5e5d4"},"provincia":"SA","regione":"Campania","longitudine":15.37724436},{"istat":"65096","comune":"Pisciotta","latitudine":40.10773484,"_id":{"$oid":"60b49fb0658076478ce5e5d5"},"provincia":"SA","regione":"Campania","longitudine":15.23370925},{"istat":"65097","comune":"Polla","latitudine":40.51419911,"_id":{"$oid":"60b49fb0658076478ce5e5d6"},"provincia":"SA","regione":"Campania","longitudine":15.49325713},{"istat":"65098","comune":"Pollica","latitudine":40.19070542,"_id":{"$oid":"60b49fb0658076478ce5e5d7"},"provincia":"SA","regione":"Campania","longitudine":15.05734127},{"istat":"65099","comune":"Pontecagnano Faiano","latitudine":40.64296854,"_id":{"$oid":"60b49fb0658076478ce5e5d8"},"provincia":"SA","regione":"Campania","longitudine":14.87340385},{"istat":"65100","comune":"Positano","latitudine":40.62888712,"_id":{"$oid":"60b49fb0658076478ce5e5d9"},"provincia":"SA","regione":"Campania","longitudine":14.4836174},{"istat":"65101","comune":"Postiglione","latitudine":40.55724143,"_id":{"$oid":"60b49fb0658076478ce5e5da"},"provincia":"SA","regione":"Campania","longitudine":15.2330423},{"istat":"65102","comune":"Praiano","latitudine":40.61144748,"_id":{"$oid":"60b49fb0658076478ce5e5db"},"provincia":"SA","regione":"Campania","longitudine":14.53257625},{"istat":"65103","comune":"Prignano Cilento","latitudine":40.32986596,"_id":{"$oid":"60b49fb0658076478ce5e5dc"},"provincia":"SA","regione":"Campania","longitudine":15.06923061},{"istat":"65104","comune":"Ravello","latitudine":40.65284481,"_id":{"$oid":"60b49fb0658076478ce5e5dd"},"provincia":"SA","regione":"Campania","longitudine":14.61364727},{"istat":"65105","comune":"Ricigliano","latitudine":40.6680866,"_id":{"$oid":"60b49fb0658076478ce5e5de"},"provincia":"SA","regione":"Campania","longitudine":15.4836057},{"istat":"65106","comune":"Roccadaspide","latitudine":40.42604608,"_id":{"$oid":"60b49fb0658076478ce5e5df"},"provincia":"SA","regione":"Campania","longitudine":15.19428476},{"istat":"65107","comune":"Roccagloriosa","latitudine":40.10605474,"_id":{"$oid":"60b49fb0658076478ce5e5e0"},"provincia":"SA","regione":"Campania","longitudine":15.43757851},{"istat":"65108","comune":"Roccapiemonte","latitudine":40.76236839,"_id":{"$oid":"60b49fb0658076478ce5e5e1"},"provincia":"SA","regione":"Campania","longitudine":14.69268111},{"istat":"65109","comune":"Rofrano","latitudine":40.21046845,"_id":{"$oid":"60b49fb0658076478ce5e5e2"},"provincia":"SA","regione":"Campania","longitudine":15.42723315},{"istat":"65110","comune":"Romagnano al Monte","latitudine":40.6279482,"_id":{"$oid":"60b49fb0658076478ce5e5e3"},"provincia":"SA","regione":"Campania","longitudine":15.43453415},{"istat":"65111","comune":"Roscigno","latitudine":40.40037084,"_id":{"$oid":"60b49fb0658076478ce5e5e4"},"provincia":"SA","regione":"Campania","longitudine":15.34453927},{"istat":"65112","comune":"Rutino","latitudine":40.29988229,"_id":{"$oid":"60b49fb0658076478ce5e5e5"},"provincia":"SA","regione":"Campania","longitudine":15.07009494},{"istat":"65113","comune":"Sacco","latitudine":40.38178119,"_id":{"$oid":"60b49fb0658076478ce5e5e6"},"provincia":"SA","regione":"Campania","longitudine":15.3729118},{"istat":"65114","comune":"Sala Consilina","latitudine":40.4026612,"_id":{"$oid":"60b49fb0658076478ce5e5e7"},"provincia":"SA","regione":"Campania","longitudine":15.59084298},{"istat":"65115","comune":"Salento","latitudine":40.24899255,"_id":{"$oid":"60b49fb0658076478ce5e5e8"},"provincia":"SA","regione":"Campania","longitudine":15.18841701},{"istat":"65116","comune":"Salerno","latitudine":40.67821959,"_id":{"$oid":"60b49fb0658076478ce5e5e9"},"provincia":"SA","regione":"Campania","longitudine":14.75940296},{"istat":"65117","comune":"Salvitelle","latitudine":40.59106183,"_id":{"$oid":"60b49fb0658076478ce5e5ea"},"provincia":"SA","regione":"Campania","longitudine":15.45931382},{"istat":"65118","comune":"San Cipriano Picentino","latitudine":40.72040176,"_id":{"$oid":"60b49fb0658076478ce5e5eb"},"provincia":"SA","regione":"Campania","longitudine":14.87235531},{"istat":"65119","comune":"San Giovanni a Piro","latitudine":40.05043571,"_id":{"$oid":"60b49fb0658076478ce5e5ec"},"provincia":"SA","regione":"Campania","longitudine":15.44984225},{"istat":"65120","comune":"San Gregorio Magno","latitudine":40.65616247,"_id":{"$oid":"60b49fb0658076478ce5e5ed"},"provincia":"SA","regione":"Campania","longitudine":15.39940921},{"istat":"65121","comune":"San Mango Piemonte","latitudine":40.70024082,"_id":{"$oid":"60b49fb0658076478ce5e5ee"},"provincia":"SA","regione":"Campania","longitudine":14.83918854},{"istat":"65122","comune":"San Marzano sul Sarno","latitudine":40.77460793,"_id":{"$oid":"60b49fb0658076478ce5e5ef"},"provincia":"SA","regione":"Campania","longitudine":14.58798217},{"istat":"65123","comune":"San Mauro Cilento","latitudine":40.22628217,"_id":{"$oid":"60b49fb0658076478ce5e5f0"},"provincia":"SA","regione":"Campania","longitudine":15.04476431},{"istat":"65124","comune":"San Mauro La Bruca","latitudine":"non disponibile","_id":{"$oid":"60b49fb0658076478ce5e5f1"},"provincia":"SA","regione":"Campania","longitudine":"non disponibile"},{"istat":"65125","comune":"San Pietro al Tanagro","latitudine":40.45403757,"_id":{"$oid":"60b49fb0658076478ce5e5f2"},"provincia":"SA","regione":"Campania","longitudine":15.48754102},{"istat":"65126","comune":"San Rufo","latitudine":40.43434882,"_id":{"$oid":"60b49fb0658076478ce5e5f3"},"provincia":"SA","regione":"Campania","longitudine":15.461657},{"istat":"65127","comune":"Santa Marina","latitudine":40.10520303,"_id":{"$oid":"60b49fb0658076478ce5e5f4"},"provincia":"SA","regione":"Campania","longitudine":15.54152852},{"istat":"65128","comune":"Sant'Angelo a Fasanella","latitudine":40.45704286,"_id":{"$oid":"60b49fb0658076478ce5e5f5"},"provincia":"SA","regione":"Campania","longitudine":15.34366051},{"istat":"65129","comune":"Sant'Arsenio","latitudine":40.47110216,"_id":{"$oid":"60b49fb0658076478ce5e5f6"},"provincia":"SA","regione":"Campania","longitudine":15.4864055},{"istat":"65130","comune":"Sant'Egidio del Monte Albino","latitudine":40.73592269,"_id":{"$oid":"60b4